name,review_count,rating,address1,address2,city,state,zip_code,url,id,latitude,longitude,alias,title,price
"Flavorz Los Angeles",6,5.0,"1360 Logan St",,"Los Angeles ",CA,90026,https://www.yelp.com/biz/flavorz-los-angeles-los-angeles?adjust_creative=X5Beq4YFcWJGL3TdpUzGVg&utm_campaign=yelp_api_v3&utm_medium=api_v3_business_search&utm_source=X5Beq4YFcWJGL3TdpUzGVg,3OH8qLfVWH10uBUw5DqsaQ,34.077922661649055,-118.2579530927729,filipino,Filipino,2
"Lassens Natural Foods & Vitamins",235,3.0,"1631 W Sunset Blvd",,"Los Angeles",CA,90026,https://www.yelp.com/biz/lassens-natural-foods-and-vitamins-los-angeles-2?adjust_creative=X5Beq4YFcWJGL3TdpUzGVg&utm_campaign=yelp_api_v3&utm_medium=api_v3_business_search&utm_source=X5Beq4YFcWJGL3TdpUzGVg,RmV5P6tQ5i40un4N3_xZlQ,34.0777350433413,-118.257853327657,vitaminssupplements,"Vitamins & Supplements",2
"Rodeo Express",52,4.5,"1717 W Sunset Blvd",,"Los Angeles",CA,90026,https://www.yelp.com/biz/rodeo-express-los-angeles?adjust_creative=X5Beq4YFcWJGL3TdpUzGVg&utm_campaign=yelp_api_v3&utm_medium=api_v3_business_search&utm_source=X5Beq4YFcWJGL3TdpUzGVg,J-YdHW730lY0BgsDRZCB6Q,34.077727,-118.258845917881,mexican,Mexican,2
"Señor Fish",252,3.0,"1701 W Sunset Blvd",,"Los Angeles",CA,90026,https://www.yelp.com/biz/se%C3%B1or-fish-los-angeles-6?adjust_creative=X5Beq4YFcWJGL3TdpUzGVg&utm_campaign=yelp_api_v3&utm_medium=api_v3_business_search&utm_source=X5Beq4YFcWJGL3TdpUzGVg,dKVIKCk_hXw01ivIvWGEcQ,34.0773897069776,-118.258504271507,mexican,Mexican,2
"LJ’s Fish And Shrimp Taco",38,4.5,"1625 Sunset Blvd",,"Los Angeles",CA,90026,https://www.yelp.com/biz/lj-s-fish-and-shrimp-taco-los-angeles?adjust_creative=X5Beq4YFcWJGL3TdpUzGVg&utm_campaign=yelp_api_v3&utm_medium=api_v3_business_search&utm_source=X5Beq4YFcWJGL3TdpUzGVg,SVdZ44Wdu7RXGWMdRTt8Vw,34.077734,-118.257534,tacos,Tacos,2
"Rodeo Mexican Grill",430,3.0,"1721 W Sunset Blvd",,"Los Angeles",CA,90026,https://www.yelp.com/biz/rodeo-mexican-grill-los-angeles?adjust_creative=X5Beq4YFcWJGL3TdpUzGVg&utm_campaign=yelp_api_v3&utm_medium=api_v3_business_search&utm_source=X5Beq4YFcWJGL3TdpUzGVg,4dGt-8wBw449e2e1nIj8MA,34.0777138,-118.2589755,mexican,Mexican,2
"Kind Kreme",120,3.5,"1700 W Sunset Blvd",,"Los Angeles",CA,90026,https://www.yelp.com/biz/kind-kreme-los-angeles-2?adjust_creative=X5Beq4YFcWJGL3TdpUzGVg&utm_campaign=yelp_api_v3&utm_medium=api_v3_business_search&utm_source=X5Beq4YFcWJGL3TdpUzGVg,62fCjWIVfBIAc9tBOnBW7Q,34.07705,-118.25888,icecream,"Ice Cream & Frozen Yogurt",2
"Midnight Ridazz",22,3.5,"1321 Echo Park Ave",,"Los Angeles",CA,90026,https://www.yelp.com/biz/midnight-ridazz-los-angeles?adjust_creative=X5Beq4YFcWJGL3TdpUzGVg&utm_campaign=yelp_api_v3&utm_medium=api_v3_business_search&utm_source=X5Beq4YFcWJGL3TdpUzGVg,JSdDhV58GE1jA4SWFNmKVA,34.0776405334473,-118.257133483887,localflavor,"Local Flavor",2
"Little Caesars Pizza",49,2.5,"1321 Echo Park Ave",,"Los Angeles",CA,90026,https://www.yelp.com/biz/little-caesars-pizza-los-angeles-43?adjust_creative=X5Beq4YFcWJGL3TdpUzGVg&utm_campaign=yelp_api_v3&utm_medium=api_v3_business_search&utm_source=X5Beq4YFcWJGL3TdpUzGVg,81sbFRSQUhzhquoH7h1sIg,34.07764,-118.25713,pizza,Pizza,2
"Tacos Arabes- Taco Truck",9,4.5,"1210 Logan St",,"Los Angeles",CA,90026,https://www.yelp.com/biz/tacos-arabes-taco-truck-los-angeles?adjust_creative=X5Beq4YFcWJGL3TdpUzGVg&utm_campaign=yelp_api_v3&utm_medium=api_v3_business_search&utm_source=X5Beq4YFcWJGL3TdpUzGVg,OurQD4GsApgFHTt7YPWCCA,34.0769585967064,-118.258563950658,mexican,Mexican,2
"Stories Books and Cafe",444,4.0,"1716 Sunset Blvd",,"Los Angeles",CA,90026,https://www.yelp.com/biz/stories-books-and-cafe-los-angeles?adjust_creative=X5Beq4YFcWJGL3TdpUzGVg&utm_campaign=yelp_api_v3&utm_medium=api_v3_business_search&utm_source=X5Beq4YFcWJGL3TdpUzGVg,PqKxehCDLo7rrbBBz7zKBQ,34.077356,-118.259051,bookstores,Bookstores,2
"Sage Plant Based Bistro & Brewery",2483,4.0,"1700 Sunset Blvd",,"Los Angeles",CA,90026,https://www.yelp.com/biz/sage-plant-based-bistro-and-brewery-los-angeles-4?adjust_creative=X5Beq4YFcWJGL3TdpUzGVg&utm_campaign=yelp_api_v3&utm_medium=api_v3_business_search&utm_source=X5Beq4YFcWJGL3TdpUzGVg,L3YM8cAda9L_t_j-2C4ufA,34.077123,-118.258714,vegan,Vegan,2
K-Brones,12,5.0,"1630 Sunset Blvd",,"Los Angeles",CA,90026,https://www.yelp.com/biz/k-brones-los-angeles?adjust_creative=X5Beq4YFcWJGL3TdpUzGVg&utm_campaign=yelp_api_v3&utm_medium=api_v3_business_search&utm_source=X5Beq4YFcWJGL3TdpUzGVg,7YWJLid91CHR_kzvrTJ0_A,34.07702351511239,-118.25832733974943,breakfast_brunch,"Breakfast & Brunch",2
"Silverback Coffee of Rwanda",67,4.5,"1712 W Sunset Blvd",,"Los Angeles",CA,90026,https://www.yelp.com/biz/silverback-coffee-of-rwanda-los-angeles-3?adjust_creative=X5Beq4YFcWJGL3TdpUzGVg&utm_campaign=yelp_api_v3&utm_medium=api_v3_business_search&utm_source=X5Beq4YFcWJGL3TdpUzGVg,eN7TNNuEWe8DiU1hZHDZOA,34.07724,-118.25897,coffee,"Coffee & Tea",2
Phakhaothip,3,4.5,"1712 Sunset Blvd",,"Los Angeles",CA,90026,https://www.yelp.com/biz/phakhaothip-los-angeles?adjust_creative=X5Beq4YFcWJGL3TdpUzGVg&utm_campaign=yelp_api_v3&utm_medium=api_v3_business_search&utm_source=X5Beq4YFcWJGL3TdpUzGVg,N3Fmp5OcPObH4d-SEdwLOw,34.077212,-118.258972,foodtrucks,"Food Trucks",2
"Spirit House Echo Park",3,4.5,"1801 Sunset Blvd",,"Los Angeles",CA,90026,https://www.yelp.com/biz/spirit-house-echo-park-los-angeles-2?adjust_creative=X5Beq4YFcWJGL3TdpUzGVg&utm_campaign=yelp_api_v3&utm_medium=api_v3_business_search&utm_source=X5Beq4YFcWJGL3TdpUzGVg,i0bG8-DwfmEpf5sbQVpQ1w,34.07786,-118.25939,cocktailbars,"Cocktail Bars",2
"Sticky Rice Echo Park",274,3.5,"1801 Sunset Blvd",,"Los Angeles",CA,90026,https://www.yelp.com/biz/sticky-rice-echo-park-los-angeles?adjust_creative=X5Beq4YFcWJGL3TdpUzGVg&utm_campaign=yelp_api_v3&utm_medium=api_v3_business_search&utm_source=X5Beq4YFcWJGL3TdpUzGVg,YcTr0RDHTR1uLjfwL5mEkw,34.07799,-118.25937,thai,Thai,2
"El Prado",305,4.0,"1805 W Sunset Blvd",,"Los Angeles",CA,90026,https://www.yelp.com/biz/el-prado-los-angeles?adjust_creative=X5Beq4YFcWJGL3TdpUzGVg&utm_campaign=yelp_api_v3&utm_medium=api_v3_business_search&utm_source=X5Beq4YFcWJGL3TdpUzGVg,FeYrDlDJngA8IkzcCZ0aYQ,34.07799,-118.25937,bars,Bars,2
"Honey Hi",291,4.5,"1620 Sunset Blvd",,"Los Angeles",CA,90026,https://www.yelp.com/biz/honey-hi-los-angeles?adjust_creative=X5Beq4YFcWJGL3TdpUzGVg&utm_campaign=yelp_api_v3&utm_medium=api_v3_business_search&utm_source=X5Beq4YFcWJGL3TdpUzGVg,9T2bBH4n0_i7KhE0kPQiPw,34.0768811,-118.2580069,cafes,Cafes,2
"Masa of Echo Park",4413,4.0,"1800 W Sunset Blvd",,"Los Angeles",CA,90026,https://www.yelp.com/biz/masa-of-echo-park-los-angeles?adjust_creative=X5Beq4YFcWJGL3TdpUzGVg&utm_campaign=yelp_api_v3&utm_medium=api_v3_business_search&utm_source=X5Beq4YFcWJGL3TdpUzGVg,CbW8U0QAwh5XRkaLt0xNZA,34.077585,-118.259599,pizza,Pizza,2
"Rafa's Lounge",11,4.0,"1836 W Sunset Blvd",,"Los Angeles",CA,90026,https://www.yelp.com/biz/rafas-lounge-los-angeles?adjust_creative=X5Beq4YFcWJGL3TdpUzGVg&utm_campaign=yelp_api_v3&utm_medium=api_v3_business_search&utm_source=X5Beq4YFcWJGL3TdpUzGVg,2uoUEYPqrGjMfxnk2cedng,34.0777621,-118.2596889,lounges,Lounges,2
"Los Burritos",73,3.0,"1312 Echo Park Ave",,"Los Angeles",CA,90026,https://www.yelp.com/biz/los-burritos-los-angeles?adjust_creative=X5Beq4YFcWJGL3TdpUzGVg&utm_campaign=yelp_api_v3&utm_medium=api_v3_business_search&utm_source=X5Beq4YFcWJGL3TdpUzGVg,4YJM3Tjp5ifkEktzG8FHvg,34.0771336108446,-118.257081359625,mexican,Mexican,2
"Amaro Restaurant",10,3.5,"1320 Echo Park Ave",,"Los Angeles",CA,90026,https://www.yelp.com/biz/amaro-restaurant-los-angeles?adjust_creative=X5Beq4YFcWJGL3TdpUzGVg&utm_campaign=yelp_api_v3&utm_medium=api_v3_business_search&utm_source=X5Beq4YFcWJGL3TdpUzGVg,ob8kLiZsU6N-FUTeN01D0Q,34.07727,-118.2567,tradamerican,"American (Traditional)",2
"Combo A",405,4.5,"1411 Echo Park Ave",,"Los Angeles",CA,90026,https://www.yelp.com/biz/combo-a-los-angeles?adjust_creative=X5Beq4YFcWJGL3TdpUzGVg&utm_campaign=yelp_api_v3&utm_medium=api_v3_business_search&utm_source=X5Beq4YFcWJGL3TdpUzGVg,njyf0pk4spqk5jRLUVlN-A,34.07817,-118.25676,chinese,Chinese,2
"Ivan's Cooking",13,5.0,,,"Los Angeles",CA,90026,https://www.yelp.com/biz/ivans-cooking-los-angeles?adjust_creative=X5Beq4YFcWJGL3TdpUzGVg&utm_campaign=yelp_api_v3&utm_medium=api_v3_business_search&utm_source=X5Beq4YFcWJGL3TdpUzGVg,9iOn_N_SCU-vFOu2G8fDGA,34.0794034294222,-118.258681261377,desserts,Desserts,2
"Triple Beam Pizza",145,4.0,"1818 W Sunset Blvd",,"Los Angeles",CA,90026,https://www.yelp.com/biz/triple-beam-pizza-los-angeles-3?adjust_creative=X5Beq4YFcWJGL3TdpUzGVg&utm_campaign=yelp_api_v3&utm_medium=api_v3_business_search&utm_source=X5Beq4YFcWJGL3TdpUzGVg,uMLZ0gGjOqFjJJF_kNoccg,34.077682,-118.2598712,pizza,Pizza,2
"The Echo",434,3.5,"1822 W Sunset Blvd",,"Los Angeles",CA,90026,https://www.yelp.com/biz/the-echo-los-angeles?adjust_creative=X5Beq4YFcWJGL3TdpUzGVg&utm_campaign=yelp_api_v3&utm_medium=api_v3_business_search&utm_source=X5Beq4YFcWJGL3TdpUzGVg,mzO5Ib2H4ffBmr5jpNDeQg,34.0775756835938,-118.260078430176,musicvenues,"Music Venues",2
"Jakes Coffee",1,5.0,,,"Los Angeles",CA,90026,https://www.yelp.com/biz/jakes-coffee-los-angeles-2?adjust_creative=X5Beq4YFcWJGL3TdpUzGVg&utm_campaign=yelp_api_v3&utm_medium=api_v3_business_search&utm_source=X5Beq4YFcWJGL3TdpUzGVg,e4p1XY5mLUd81nrYhaBh6w,34.078742980957,-118.26375579834,popupshops,"Pop-up Shops",2
"Los Angeles Shave Ice Truck",25,4.5,,,"Los Angeles",CA,90026,https://www.yelp.com/biz/los-angeles-shave-ice-truck-los-angeles?adjust_creative=X5Beq4YFcWJGL3TdpUzGVg&utm_campaign=yelp_api_v3&utm_medium=api_v3_business_search&utm_source=X5Beq4YFcWJGL3TdpUzGVg,IdvKPkAnraeMMj3q17yUbA,34.07663,-118.26483,icecream,"Ice Cream & Frozen Yogurt",2
"Parkman Triangle Park",1,5.0,,,"Los Angeles",CA,90026,https://www.yelp.com/biz/parkman-triangle-park-los-angeles?adjust_creative=X5Beq4YFcWJGL3TdpUzGVg&utm_campaign=yelp_api_v3&utm_medium=api_v3_business_search&utm_source=X5Beq4YFcWJGL3TdpUzGVg,lP_RKWCbn2OrWCTjm8tdEA,34.07663,-118.26483,parks,Parks,2
"Sweet Nothin' Bakery",1,5.0,,,"Los Angeles",CA,90026,https://www.yelp.com/biz/sweet-nothin-bakery-los-angeles?adjust_creative=X5Beq4YFcWJGL3TdpUzGVg&utm_campaign=yelp_api_v3&utm_medium=api_v3_business_search&utm_source=X5Beq4YFcWJGL3TdpUzGVg,zGIyAro59XvBvkXbqVeF1w,34.07663,-118.26483,bakeries,Bakeries,2
"Yummy Crepe Stand",4,5.0,,,"Los Angeles",CA,90026,https://www.yelp.com/biz/yummy-crepe-stand-los-angeles?adjust_creative=X5Beq4YFcWJGL3TdpUzGVg&utm_campaign=yelp_api_v3&utm_medium=api_v3_business_search&utm_source=X5Beq4YFcWJGL3TdpUzGVg,xFMzCotq4cURN37cvTr9eQ,34.078742980957,-118.26375579834,streetvendors,"Street Vendors",2
Veganmadness,1,5.0,,,"Los Angeles",CA,90026,https://www.yelp.com/biz/veganmadness-los-angeles?adjust_creative=X5Beq4YFcWJGL3TdpUzGVg&utm_campaign=yelp_api_v3&utm_medium=api_v3_business_search&utm_source=X5Beq4YFcWJGL3TdpUzGVg,Ya9-w3N67F_bAI9xAylKmw,34.0796167,-118.2585096,desserts,Desserts,2
"Heavy Hitterz Street Food",2,5.0,,,"Los Angeles",CA,90026,https://www.yelp.com/biz/heavy-hitterz-street-food-los-angeles?adjust_creative=X5Beq4YFcWJGL3TdpUzGVg&utm_campaign=yelp_api_v3&utm_medium=api_v3_business_search&utm_source=X5Beq4YFcWJGL3TdpUzGVg,iV6IEVyTKEJxAbSP4o0S4Q,34.0771,-118.259,streetvendors,"Street Vendors",2
"Hope Ice Cream",2,4.5,,,"Los Angeles",CA,90026,https://www.yelp.com/biz/hope-ice-cream-los-angeles?adjust_creative=X5Beq4YFcWJGL3TdpUzGVg&utm_campaign=yelp_api_v3&utm_medium=api_v3_business_search&utm_source=X5Beq4YFcWJGL3TdpUzGVg,J-6BQiuKdGU_m_HU1Fkavg,34.0771,-118.259,foodtrucks,"Food Trucks",2
"Echo Park Historical Society",1,5.0,,,"Los Angeles",CA,90026,https://www.yelp.com/biz/echo-park-historical-society-los-angeles?adjust_creative=X5Beq4YFcWJGL3TdpUzGVg&utm_campaign=yelp_api_v3&utm_medium=api_v3_business_search&utm_source=X5Beq4YFcWJGL3TdpUzGVg,H3_gOt0Yt-ypFIn81k8cYg,34.078742980957,-118.26375579834,landmarks,"Landmarks & Historical Buildings",2
"Karla’s Coffee Cart",11,5.0,,,"Los Angeles",CA,90026,https://www.yelp.com/biz/karla-s-coffee-cart-los-angeles-3?adjust_creative=X5Beq4YFcWJGL3TdpUzGVg&utm_campaign=yelp_api_v3&utm_medium=api_v3_business_search&utm_source=X5Beq4YFcWJGL3TdpUzGVg,8H8fUjtSufigCmeM_A4qCQ,34.0770492553711,-118.25887298584,coffee,"Coffee & Tea",2
"Tacos Arizas",215,4.0,,,"Los Angeles",CA,90026,https://www.yelp.com/biz/tacos-arizas-los-angeles?adjust_creative=X5Beq4YFcWJGL3TdpUzGVg&utm_campaign=yelp_api_v3&utm_medium=api_v3_business_search&utm_source=X5Beq4YFcWJGL3TdpUzGVg,ZNL76QlAzJjYjBc6ALM5Gg,34.07705,-118.25887,mexican,Mexican,2
"Alejandra’s Quesadilla Cart",172,4.5,"1246 Echo Park Ave",,"Los Angeles",CA,90026,https://www.yelp.com/biz/alejandra-s-quesadilla-cart-los-angeles?adjust_creative=X5Beq4YFcWJGL3TdpUzGVg&utm_campaign=yelp_api_v3&utm_medium=api_v3_business_search&utm_source=X5Beq4YFcWJGL3TdpUzGVg,RMi8jn4ZBnAL3-l1T7tjmA,34.0760671,-118.257599,foodstands,"Food Stands",2
"Gold Room",654,3.5,"1558 W Sunset Blvd",,"Los Angeles",CA,90026,https://www.yelp.com/biz/gold-room-los-angeles?adjust_creative=X5Beq4YFcWJGL3TdpUzGVg&utm_campaign=yelp_api_v3&utm_medium=api_v3_business_search&utm_source=X5Beq4YFcWJGL3TdpUzGVg,ztwtTL6Ka1hPGvQHWsn2Eg,34.0764393,-118.2569678,cocktailbars,"Cocktail Bars",2
"Hey Hey",363,4.0,"1555 W Sunset Blvd","Unit B","Los Angeles",CA,90026,https://www.yelp.com/biz/hey-hey-los-angeles?adjust_creative=X5Beq4YFcWJGL3TdpUzGVg&utm_campaign=yelp_api_v3&utm_medium=api_v3_business_search&utm_source=X5Beq4YFcWJGL3TdpUzGVg,3T2-MzYwV1SFIJQn8pzaNg,34.07663904683218,-118.25666064339077,coffee,"Coffee & Tea",2
"Street Level Cafe",264,4.5,"1166 Glendale Blvd",,"Los Angeles",CA,90026,https://www.yelp.com/biz/street-level-cafe-los-angeles?adjust_creative=X5Beq4YFcWJGL3TdpUzGVg&utm_campaign=yelp_api_v3&utm_medium=api_v3_business_search&utm_source=X5Beq4YFcWJGL3TdpUzGVg,bs1e_IRYZcu__zo3gsrKsQ,34.0774076981254,-118.260757676197,cafes,Cafes,2
"Baked Goods",4,5.0,"1162 Glendale Blvd",,"Los Angeles",CA,90026,https://www.yelp.com/biz/baked-goods-los-angeles?adjust_creative=X5Beq4YFcWJGL3TdpUzGVg&utm_campaign=yelp_api_v3&utm_medium=api_v3_business_search&utm_source=X5Beq4YFcWJGL3TdpUzGVg,lsHLMuxPRRVBZTWoM186cg,34.077633,-118.26049,juicebars,"Juice Bars & Smoothies",2
"Hard Times Pizza",282,4.0,"1311 Glendale Blvd",,"Los Angeles",CA,90026,https://www.yelp.com/biz/hard-times-pizza-los-angeles-2?adjust_creative=X5Beq4YFcWJGL3TdpUzGVg&utm_campaign=yelp_api_v3&utm_medium=api_v3_business_search&utm_source=X5Beq4YFcWJGL3TdpUzGVg,YDn6HHTNJF_Q79fP0mEKQw,34.078532,-118.2604251,pizza,Pizza,2
"Bar Flores",199,4.0,"1542 Sunset Blvd",,"Los Angeles",CA,90026,https://www.yelp.com/biz/bar-flores-los-angeles-6?adjust_creative=X5Beq4YFcWJGL3TdpUzGVg&utm_campaign=yelp_api_v3&utm_medium=api_v3_business_search&utm_source=X5Beq4YFcWJGL3TdpUzGVg,XxJQEwgE-i6N1oolJ4vIOQ,34.0763375,-118.2567569,cocktailbars,"Cocktail Bars",2
"Down & Derby",2,5.0,"1154 Glendale Blvd",,"Los Angeles",CA,90026,https://www.yelp.com/biz/down-and-derby-los-angeles?adjust_creative=X5Beq4YFcWJGL3TdpUzGVg&utm_campaign=yelp_api_v3&utm_medium=api_v3_business_search&utm_source=X5Beq4YFcWJGL3TdpUzGVg,-TPTiWJvzqQlDY8vqCOstA,34.0773203795762,-118.26079911563,localflavor,"Local Flavor",2
Lowboy,198,4.0,"1540 Sunset Blvd",,"Los Angeles",CA,90026,https://www.yelp.com/biz/lowboy-los-angeles-3?adjust_creative=X5Beq4YFcWJGL3TdpUzGVg&utm_campaign=yelp_api_v3&utm_medium=api_v3_business_search&utm_source=X5Beq4YFcWJGL3TdpUzGVg,fETqhZO6YjM1VTWCJpT8VA,34.0763248,-118.2567306,cocktailbars,"Cocktail Bars",2
Starbucks,32,2.5,"1400 Glendale Blvd",,"Los Angeles",CA,90026,https://www.yelp.com/biz/starbucks-los-angeles-536?adjust_creative=X5Beq4YFcWJGL3TdpUzGVg&utm_campaign=yelp_api_v3&utm_medium=api_v3_business_search&utm_source=X5Beq4YFcWJGL3TdpUzGVg,XUV1T3b5fEQEyMB9I_pXSQ,34.07982,-118.259861,coffee,"Coffee & Tea",2
"Woodcat Coffee Bar",278,4.0,"1532 W Sunset Blvd",,"Los Angeles",CA,90026,https://www.yelp.com/biz/woodcat-coffee-bar-los-angeles-4?adjust_creative=X5Beq4YFcWJGL3TdpUzGVg&utm_campaign=yelp_api_v3&utm_medium=api_v3_business_search&utm_source=X5Beq4YFcWJGL3TdpUzGVg,9MnQ_xR8qAFEzVUWkPdKvA,34.0761964606266,-118.25645538123,coffee,"Coffee & Tea",2
"It's Thai Hometaurant",540,3.5,"1311 Glendale Blvd","Ste A","Los Angeles",CA,90026,https://www.yelp.com/biz/its-thai-hometaurant-los-angeles?adjust_creative=X5Beq4YFcWJGL3TdpUzGVg&utm_campaign=yelp_api_v3&utm_medium=api_v3_business_search&utm_source=X5Beq4YFcWJGL3TdpUzGVg,gOmhSjyZqF9WXv_yFZAlvw,34.0785716,-118.2605345,thai,Thai,1
"Burger King",43,2.5,"1301 Glendale Blvd",,"Los Angeles",CA,90026,https://www.yelp.com/biz/burger-king-los-angeles-36?adjust_creative=X5Beq4YFcWJGL3TdpUzGVg&utm_campaign=yelp_api_v3&utm_medium=api_v3_business_search&utm_source=X5Beq4YFcWJGL3TdpUzGVg,KckVmgZAwIXNqfI5dIG6Fg,34.0785405004642,-118.260894119739,hotdogs,"Fast Food",1
"centro botanico nacional",2,4.0,"1530 W Sunset Blvd",,"Los Angeles",CA,90026,https://www.yelp.com/biz/centro-botanico-nacional-los-angeles?adjust_creative=X5Beq4YFcWJGL3TdpUzGVg&utm_campaign=yelp_api_v3&utm_medium=api_v3_business_search&utm_source=X5Beq4YFcWJGL3TdpUzGVg,voIxuY-aEsjEIt3VbMdZzg,34.0761874616146,-118.256157338619,parks,Parks,1
"Monty's Good Burger",608,4.5,"1533 W Sunset Blvd",,"Los Angeles",CA,90026,https://www.yelp.com/biz/montys-good-burger-los-angeles-6?adjust_creative=X5Beq4YFcWJGL3TdpUzGVg&utm_campaign=yelp_api_v3&utm_medium=api_v3_business_search&utm_source=X5Beq4YFcWJGL3TdpUzGVg,0KicdACooH2zW9c7XWmR9Q,34.07645,-118.25591,burgers,Burgers,1
"The Semi-Tropic",437,4.5,"1412 Glendale Blvd",,"Los Angeles",CA,90026,https://www.yelp.com/biz/the-semi-tropic-los-angeles?adjust_creative=X5Beq4YFcWJGL3TdpUzGVg&utm_campaign=yelp_api_v3&utm_medium=api_v3_business_search&utm_source=X5Beq4YFcWJGL3TdpUzGVg,h3KzTYozazMtdhS8C1qBXg,34.07998,-118.25979,diners,Diners,1
"Supersweet Tattoos & Coffee",240,4.5,"1345-1347 Glendale Blvd",,"Los Angeles",CA,90026,https://www.yelp.com/biz/supersweet-tattoos-and-coffee-los-angeles-3?adjust_creative=X5Beq4YFcWJGL3TdpUzGVg&utm_campaign=yelp_api_v3&utm_medium=api_v3_business_search&utm_source=X5Beq4YFcWJGL3TdpUzGVg,TvPrrAhYtpDLC49tQ-2drQ,34.07947983,-118.26043017,coffee,"Coffee & Tea",1
"Reggie's Deli & Cafe",340,4.5,"1910 W Sunset Blvd","Ste 150","Los Angeles",CA,90026,https://www.yelp.com/biz/reggies-deli-and-cafe-los-angeles?adjust_creative=X5Beq4YFcWJGL3TdpUzGVg&utm_campaign=yelp_api_v3&utm_medium=api_v3_business_search&utm_source=X5Beq4YFcWJGL3TdpUzGVg,2XQf1Mrj-0R8wDiX5nvx-w,34.0778791587875,-118.261265406746,bagels,Bagels,1
"Ostrich Farm",499,4.0,"1525 W Sunset Blvd",,"Los Angeles",CA,90026,https://www.yelp.com/biz/ostrich-farm-los-angeles?adjust_creative=X5Beq4YFcWJGL3TdpUzGVg&utm_campaign=yelp_api_v3&utm_medium=api_v3_business_search&utm_source=X5Beq4YFcWJGL3TdpUzGVg,nUT0BaARIUa1I_qV39mj9A,34.07639,-118.25579,bars,Bars,1
"Patra Burgers On Sunset",189,4.0,"1524 W Sunset Blvd",,"Los Angeles",CA,90026,https://www.yelp.com/biz/patra-burgers-on-sunset-los-angeles?adjust_creative=X5Beq4YFcWJGL3TdpUzGVg&utm_campaign=yelp_api_v3&utm_medium=api_v3_business_search&utm_source=X5Beq4YFcWJGL3TdpUzGVg,Q85kJNtWNQrH7DoZgizzRg,34.0758590698242,-118.256187438965,burgers,Burgers,1
"Brite Spot",230,3.5,"1918 W Sunset Blvd",,"Los Angeles",CA,90026,https://www.yelp.com/biz/brite-spot-los-angeles-2?adjust_creative=X5Beq4YFcWJGL3TdpUzGVg&utm_campaign=yelp_api_v3&utm_medium=api_v3_business_search&utm_source=X5Beq4YFcWJGL3TdpUzGVg,L3rnYtOWFozTC2jAfWKXvQ,34.077833683132305,-118.26131981117709,breakfast_brunch,"Breakfast & Brunch",1
"Laveta Terrace Stairs",5,4.0,,,"Los Angeles",CA,90026,https://www.yelp.com/biz/laveta-terrace-stairs-los-angeles?adjust_creative=X5Beq4YFcWJGL3TdpUzGVg&utm_campaign=yelp_api_v3&utm_medium=api_v3_business_search&utm_source=X5Beq4YFcWJGL3TdpUzGVg,E5iF3RS8JXbND5-zUXY31w,34.0770689593868,-118.255275897682,climbing,Climbing,1
"Kien Giang Bakery",195,4.5,"1471 Echo Park Ave",,"Los Angeles",CA,90026,https://www.yelp.com/biz/kien-giang-bakery-los-angeles?adjust_creative=X5Beq4YFcWJGL3TdpUzGVg&utm_campaign=yelp_api_v3&utm_medium=api_v3_business_search&utm_source=X5Beq4YFcWJGL3TdpUzGVg,pdOUQItoKoKKelvcUvWcsA,34.0797500610352,-118.255867004395,bakeries,Bakeries,1
"Ms Donuts",104,4.5,"1353 Glendale Blvd",,"Los Angeles",CA,90026,https://www.yelp.com/biz/ms-donuts-los-angeles?adjust_creative=X5Beq4YFcWJGL3TdpUzGVg&utm_campaign=yelp_api_v3&utm_medium=api_v3_business_search&utm_source=X5Beq4YFcWJGL3TdpUzGVg,abHewSmVZUlVs_syOCU7Vw,34.07976,-118.26054,donuts,Donuts,1
"Taix 321 Lounge",94,4.0,"1911 W Sunset Blvd",,"Los Angeles",CA,90026,https://www.yelp.com/biz/taix-321-lounge-los-angeles-2?adjust_creative=X5Beq4YFcWJGL3TdpUzGVg&utm_campaign=yelp_api_v3&utm_medium=api_v3_business_search&utm_source=X5Beq4YFcWJGL3TdpUzGVg,KDHlS9X2acBGBstiRWW0Vw,34.07824,-118.26108,lounges,Lounges,1
"Taix French Restaurant",868,4.0,"1911 W Sunset Blvd",,"Los Angeles",CA,90026,https://www.yelp.com/biz/taix-french-country-cuisine-los-angeles?adjust_creative=X5Beq4YFcWJGL3TdpUzGVg&utm_campaign=yelp_api_v3&utm_medium=api_v3_business_search&utm_source=X5Beq4YFcWJGL3TdpUzGVg,Fcxm2Wnz8lLDi6doGcAMTw,34.0782765,-118.2614713,french,French,1
"Angelino's Donuts",44,4.5,"1522 W Sunset Blvd",,"Los Angeles",CA,90026,https://www.yelp.com/biz/angelinos-donuts-los-angeles?adjust_creative=X5Beq4YFcWJGL3TdpUzGVg&utm_campaign=yelp_api_v3&utm_medium=api_v3_business_search&utm_source=X5Beq4YFcWJGL3TdpUzGVg,iQh7bDgq5CKSoywFns4zEA,34.075922,-118.2557857,donuts,Donuts,1
"Tania's Tacos",4,4.0,,,"Los Angeles",CA,90026,https://www.yelp.com/biz/tanias-tacos-los-angeles?adjust_creative=X5Beq4YFcWJGL3TdpUzGVg&utm_campaign=yelp_api_v3&utm_medium=api_v3_business_search&utm_source=X5Beq4YFcWJGL3TdpUzGVg,Oxi_2gvn_X4o5hno0T_D3A,34.075180273,-118.259337433,tacos,Tacos,1
"The Parsonage of Aimee Semple McPherson",4,5.0,"1801 Park Ave",,"Los Angeles",CA,90026,https://www.yelp.com/biz/the-parsonage-of-aimee-semple-mcpherson-los-angeles?adjust_creative=X5Beq4YFcWJGL3TdpUzGVg&utm_campaign=yelp_api_v3&utm_medium=api_v3_business_search&utm_source=X5Beq4YFcWJGL3TdpUzGVg,LpsqPB2imiCUwC_GiAMM1Q,34.0756935,-118.2605168,museums,Museums,1
"Baxter Street",5,2.5,"Between Echo Park Avenue And Glendale Blvd",,"Los Angeles",CA,90026,https://www.yelp.com/biz/baxter-street-los-angeles?adjust_creative=X5Beq4YFcWJGL3TdpUzGVg&utm_campaign=yelp_api_v3&utm_medium=api_v3_business_search&utm_source=X5Beq4YFcWJGL3TdpUzGVg,-gv-imfsGX9eIsETZveI0w,34.0762780926039,-118.261349311047,hiking,Hiking,1
"Stereoscope Coffee Company",80,4.5,"1501 Sunset Blvd","Ste B","Los Angeles",CA,90026,https://www.yelp.com/biz/stereoscope-coffee-company-los-angeles-4?adjust_creative=X5Beq4YFcWJGL3TdpUzGVg&utm_campaign=yelp_api_v3&utm_medium=api_v3_business_search&utm_source=X5Beq4YFcWJGL3TdpUzGVg,o70OZBMHS1wvWTyzyVcWcg,34.07613,-118.25518,coffeeroasteries,"Coffee Roasteries",1
"Happy Tacos",25,5.0,"1508 Sunset Blvd",,"Los Angeles",CA,90026,https://www.yelp.com/biz/happy-tacos-los-angeles?adjust_creative=X5Beq4YFcWJGL3TdpUzGVg&utm_campaign=yelp_api_v3&utm_medium=api_v3_business_search&utm_source=X5Beq4YFcWJGL3TdpUzGVg,GK7Tww4x8A4Xc_Nz-xTxIQ,34.0757,-118.25562,tacos,Tacos,1
Tilda,36,4.0,"1507 Echo Park Ave",,"Los Angeles",CA,90026,https://www.yelp.com/biz/tilda-los-angeles?adjust_creative=X5Beq4YFcWJGL3TdpUzGVg&utm_campaign=yelp_api_v3&utm_medium=api_v3_business_search&utm_source=X5Beq4YFcWJGL3TdpUzGVg,t4d1OJtY8TRErH3kjaCU5Q,34.0802376024259,-118.255506,wine_bars,"Wine Bars",1
"Bacetti Trattoria",38,4.0,"1509 Echo Park Ave",,"Los Angeles",CA,90026,https://www.yelp.com/biz/bacetti-trattoria-los-angeles?adjust_creative=X5Beq4YFcWJGL3TdpUzGVg&utm_campaign=yelp_api_v3&utm_medium=api_v3_business_search&utm_source=X5Beq4YFcWJGL3TdpUzGVg,PhODcqviyHMrDqbB5S8aCQ,34.08021086568791,-118.25543941257985,italian,Italian,1
McDonald's,98,2.0,"1417 Glendale Blvd",,"Los Angeles",CA,90026,https://www.yelp.com/biz/mcdonalds-los-angeles-80?adjust_creative=X5Beq4YFcWJGL3TdpUzGVg&utm_campaign=yelp_api_v3&utm_medium=api_v3_business_search&utm_source=X5Beq4YFcWJGL3TdpUzGVg,CA4xJZ3Qmn8wrGmNdxrfRw,34.080599,-118.260639,hotdogs,"Fast Food",1
"Bar Calo",69,4.0,"1498 Sunset Blvd",,"Los Angeles",CA,90026,https://www.yelp.com/biz/bar-calo-los-angeles?adjust_creative=X5Beq4YFcWJGL3TdpUzGVg&utm_campaign=yelp_api_v3&utm_medium=api_v3_business_search&utm_source=X5Beq4YFcWJGL3TdpUzGVg,QxjU5TnmLpF6Y9hp3SpUeg,34.075508,-118.255245,cocktailbars,"Cocktail Bars",1
"Quarter Sheets Pizza Club",11,4.5,"1305 Portia St",,"Los Angeles",CA,90026,https://www.yelp.com/biz/quarter-sheets-pizza-club-los-angeles?adjust_creative=X5Beq4YFcWJGL3TdpUzGVg&utm_campaign=yelp_api_v3&utm_medium=api_v3_business_search&utm_source=X5Beq4YFcWJGL3TdpUzGVg,vNRmpcJzqBMK_piXswZZzg,34.07572,-118.25436,pizza,Pizza,1
"Gloria's Kitchen",1,1.0,"1305 Portia St",,"Los Angeles",CA,90026,https://www.yelp.com/biz/glorias-kitchen-los-angeles-2?adjust_creative=X5Beq4YFcWJGL3TdpUzGVg&utm_campaign=yelp_api_v3&utm_medium=api_v3_business_search&utm_source=X5Beq4YFcWJGL3TdpUzGVg,hO5hdP07uQUYW6wtetVpwg,34.0756301879883,-118.254486083984,mexican,Mexican,1
"Tierra Mia Coffee",658,4.0,"1202 N Alvarado St",,"Los Angeles",CA,90026,https://www.yelp.com/biz/tierra-mia-coffee-los-angeles-2?adjust_creative=X5Beq4YFcWJGL3TdpUzGVg&utm_campaign=yelp_api_v3&utm_medium=api_v3_business_search&utm_source=X5Beq4YFcWJGL3TdpUzGVg,mJ5-uwF_PXPK2xihYw2N9A,34.07814,-118.26284,coffee,"Coffee & Tea",1
"3-D SPACE",10,5.0,"1200 North Alvarado St",Basement,"Los Angeles",CA,90026,https://www.yelp.com/biz/3-d-space-los-angeles?adjust_creative=X5Beq4YFcWJGL3TdpUzGVg&utm_campaign=yelp_api_v3&utm_medium=api_v3_business_search&utm_source=X5Beq4YFcWJGL3TdpUzGVg,7wgV4qcpp7BlUyAXTAf52w,34.07813,-118.26286,museums,Museums,1
"Slasher Pizza",151,4.5,"1466 Glendale Blvd",,"Los Angeles",CA,90026,https://www.yelp.com/biz/slasher-pizza-los-angeles?adjust_creative=X5Beq4YFcWJGL3TdpUzGVg&utm_campaign=yelp_api_v3&utm_medium=api_v3_business_search&utm_source=X5Beq4YFcWJGL3TdpUzGVg,__T8wnlRk82K7PMG3OYL7A,34.081632,-118.259825,pizza,Pizza,1
"Little Joy",264,3.0,"1477 W Sunset Blvd",,"Los Angeles",CA,90026,https://www.yelp.com/biz/little-joy-los-angeles-2?adjust_creative=X5Beq4YFcWJGL3TdpUzGVg&utm_campaign=yelp_api_v3&utm_medium=api_v3_business_search&utm_source=X5Beq4YFcWJGL3TdpUzGVg,Sg1A08eJJpu5mjMKdtrkEA,34.07579,-118.25435,divebars,"Dive Bars",1
"Taco Zone",674,4.5,"1342 N Alvarado St",,"Los Angeles",CA,90026,https://www.yelp.com/biz/taco-zone-los-angeles?adjust_creative=X5Beq4YFcWJGL3TdpUzGVg&utm_campaign=yelp_api_v3&utm_medium=api_v3_business_search&utm_source=X5Beq4YFcWJGL3TdpUzGVg,4Eq3-d9PQKRsx7lBUfjPUA,34.0807756721835,-118.261483535171,mexican,Mexican,1
"El Flamin Taco Truck",204,4.0,"2028 W Sunset Blvd",,"Los Angeles",CA,90026,https://www.yelp.com/biz/el-flamin-taco-truck-los-angeles-4?adjust_creative=X5Beq4YFcWJGL3TdpUzGVg&utm_campaign=yelp_api_v3&utm_medium=api_v3_business_search&utm_source=X5Beq4YFcWJGL3TdpUzGVg,bkXtGXX5kWjeGcl3VwIEaw,34.07739,-118.26316,foodtrucks,"Food Trucks",1
Echoplex,497,3.5,,,"Los Angeles",CA,90026,https://www.yelp.com/biz/echoplex-los-angeles?adjust_creative=X5Beq4YFcWJGL3TdpUzGVg&utm_campaign=yelp_api_v3&utm_medium=api_v3_business_search&utm_source=X5Beq4YFcWJGL3TdpUzGVg,ruiW9h7GIcN4y1OAhOen5Q,34.07931143440255,-118.26294494965241,musicvenues,"Music Venues",1
Maxtro’s,1,5.0,,,"Los Angeles",CA,90026,https://www.yelp.com/biz/maxtro-s-los-angeles?adjust_creative=X5Beq4YFcWJGL3TdpUzGVg&utm_campaign=yelp_api_v3&utm_medium=api_v3_business_search&utm_source=X5Beq4YFcWJGL3TdpUzGVg,V3MoslxwKE4NS0GZxYRqEg,34.07931143440255,-118.26294494965241,foodtrucks,"Food Trucks",1
"Felipe’s Tacos",1,5.0,,,"Los Angeles",CA,90026,https://www.yelp.com/biz/felipe-s-tacos-los-angeles-2?adjust_creative=X5Beq4YFcWJGL3TdpUzGVg&utm_campaign=yelp_api_v3&utm_medium=api_v3_business_search&utm_source=X5Beq4YFcWJGL3TdpUzGVg,Gb0NifwwvTnP9d2uAN_A2g,34.07931143440255,-118.26294494965241,tacos,Tacos,1
"Pupusa Stand",1,5.0,"1461 Sunset Blvd",,"Los Angeles",CA,90026,https://www.yelp.com/biz/pupusa-stand-los-angeles?adjust_creative=X5Beq4YFcWJGL3TdpUzGVg&utm_campaign=yelp_api_v3&utm_medium=api_v3_business_search&utm_source=X5Beq4YFcWJGL3TdpUzGVg,ws7WzQNd8mVP3Rd_-VCU9Q,34.0753946650076,-118.25410913676,salvadoran,Salvadoran,1
"Doña Garnacha Taco Truck",9,4.5,"W Sunset Blvd & N Alvarado St",,"Los Angeles",CA,90026,https://www.yelp.com/biz/do%C3%B1a-garnacha-taco-truck-los-angeles-2?adjust_creative=X5Beq4YFcWJGL3TdpUzGVg&utm_campaign=yelp_api_v3&utm_medium=api_v3_business_search&utm_source=X5Beq4YFcWJGL3TdpUzGVg,PwEU_ZVcX91vzNznIlT-uQ,34.0776194043274,-118.263471800194,foodstands,"Food Stands",1
"Yami Yaki",120,5.0,"1107 N Alvarado St",,"Los Angeles",CA,90026,https://www.yelp.com/biz/yami-yaki-los-angeles-2?adjust_creative=X5Beq4YFcWJGL3TdpUzGVg&utm_campaign=yelp_api_v3&utm_medium=api_v3_business_search&utm_source=X5Beq4YFcWJGL3TdpUzGVg,Bcp6NEv7CGTOtnIgvo6Unw,34.07791683,-118.26352267,teppanyaki,Teppanyaki,1
"Glowing Juices/ Vegan Market",169,5.0,"1557 Echo Park Ave",,"Los Angeles",CA,90026,https://www.yelp.com/biz/glowing-juices-vegan-market-los-angeles?adjust_creative=X5Beq4YFcWJGL3TdpUzGVg&utm_campaign=yelp_api_v3&utm_medium=api_v3_business_search&utm_source=X5Beq4YFcWJGL3TdpUzGVg,w0I9nanolEl78D-m8bCvyg,34.0812581,-118.2547795,healthmarkets,"Health Markets",1
Konbi,509,3.5,"1463 Sunset Blvd",,"Los Angeles",CA,90026,https://www.yelp.com/biz/konbi-los-angeles?adjust_creative=X5Beq4YFcWJGL3TdpUzGVg&utm_campaign=yelp_api_v3&utm_medium=api_v3_business_search&utm_source=X5Beq4YFcWJGL3TdpUzGVg,aeNCf7ks34JWnwaLIJmtBA,34.0754,-118.25369,japanese,Japanese,1
"Delicious Mini Pancakes",1,5.0,"1437 N Alvarado St",,"Los Angeles",CA,90026,https://www.yelp.com/biz/delicious-mini-pancakes-los-angeles-2?adjust_creative=X5Beq4YFcWJGL3TdpUzGVg&utm_campaign=yelp_api_v3&utm_medium=api_v3_business_search&utm_source=X5Beq4YFcWJGL3TdpUzGVg,gAEuRAwU95o81-IcY1PmVQ,34.081622,-118.261315,pancakes,Pancakes,1
"K & K Donuts",32,4.5,"2101 W Sunset Blvd",,"Los Angeles",CA,90026,https://www.yelp.com/biz/k-and-k-donuts-los-angeles?adjust_creative=X5Beq4YFcWJGL3TdpUzGVg&utm_campaign=yelp_api_v3&utm_medium=api_v3_business_search&utm_source=X5Beq4YFcWJGL3TdpUzGVg,ZVy2gPwX8cdnNk2sPdx9VQ,34.07782,-118.26374,donuts,Donuts,1
"Solar Return",29,4.5,"1461 1/2 Sunset Blvd",,"Los Angeles",CA,90026,https://www.yelp.com/biz/solar-return-los-angeles?adjust_creative=X5Beq4YFcWJGL3TdpUzGVg&utm_campaign=yelp_api_v3&utm_medium=api_v3_business_search&utm_source=X5Beq4YFcWJGL3TdpUzGVg,zWBFfR7IF6n8LQTpFTJ0SQ,34.0755140800334,-118.253621645272,spiritual_shop,"Spiritual Shop",1
"Fresh Fruit Stand",3,3.0,"Sunset Blvd",,"Los Angeles",CA,90026,https://www.yelp.com/biz/fresh-fruit-stand-los-angeles?adjust_creative=X5Beq4YFcWJGL3TdpUzGVg&utm_campaign=yelp_api_v3&utm_medium=api_v3_business_search&utm_source=X5Beq4YFcWJGL3TdpUzGVg,MXrDyxjqjSoohQIcYvV89A,34.0821759050424,-118.26022621377,streetvendors,"Street Vendors",1
"Michelagua Queen",2,5.0,,,"Los Angeles",CA,90026,https://www.yelp.com/biz/michelagua-queen-los-angeles?adjust_creative=X5Beq4YFcWJGL3TdpUzGVg&utm_campaign=yelp_api_v3&utm_medium=api_v3_business_search&utm_source=X5Beq4YFcWJGL3TdpUzGVg,p74sxflsJJIaX5q1ZP3KLw,34.073582497371,-118.259883414179,juicebars,"Juice Bars & Smoothies",1
"Burrito King Sunset",281,3.0,"2109 W Sunset Blvd",,"Los Angeles",CA,90026,https://www.yelp.com/biz/burrito-king-sunset-los-angeles?adjust_creative=X5Beq4YFcWJGL3TdpUzGVg&utm_campaign=yelp_api_v3&utm_medium=api_v3_business_search&utm_source=X5Beq4YFcWJGL3TdpUzGVg,lyzaGgYRg3vTm8enxGwmJQ,34.0777241,-118.2637577,mexican,Mexican,1
"Taco'N Madre",1,4.0,"1455-1461 N Alvarado St",,"Los Angeles",CA,90026,https://www.yelp.com/biz/tacon-madre-los-angeles?adjust_creative=X5Beq4YFcWJGL3TdpUzGVg&utm_campaign=yelp_api_v3&utm_medium=api_v3_business_search&utm_source=X5Beq4YFcWJGL3TdpUzGVg,OeWfHUevObP8z-dsZYPK3Q,34.0819236964644,-118.260889873565,streetvendors,"Street Vendors",1
"The Short Stop",884,3.5,"1455 W Sunset Blvd",,"Los Angeles",CA,90026,https://www.yelp.com/biz/the-short-stop-los-angeles?adjust_creative=X5Beq4YFcWJGL3TdpUzGVg&utm_campaign=yelp_api_v3&utm_medium=api_v3_business_search&utm_source=X5Beq4YFcWJGL3TdpUzGVg,NoKYErEO07D0COkPenL10w,34.0752952,-118.2536317,divebars,"Dive Bars",1
"Tamale Guy",5,5.0,"1455 W Sunset Blvd",,"Los Angeles",CA,90026,https://www.yelp.com/biz/tamale-guy-los-angeles?adjust_creative=X5Beq4YFcWJGL3TdpUzGVg&utm_campaign=yelp_api_v3&utm_medium=api_v3_business_search&utm_source=X5Beq4YFcWJGL3TdpUzGVg,9DjtQMDNBj4eAUxgEL_vFA,34.0752493225179,-118.253522820971,mexican,Mexican,2
"Cosa Buona",365,4.0,"2100 Sunset Blvd",,"Los Angeles",CA,90026,https://www.yelp.com/biz/cosa-buona-los-angeles-3?adjust_creative=X5Beq4YFcWJGL3TdpUzGVg&utm_campaign=yelp_api_v3&utm_medium=api_v3_business_search&utm_source=X5Beq4YFcWJGL3TdpUzGVg,5_6Gn67IRK2AcHfwWjIARQ,34.07727,-118.26389,pizza,Pizza,2
"Loco Pupusa",2,4.5,"1453 W Sunset Blvd",,"Los Angeles",CA,90026,https://www.yelp.com/biz/loco-pupusa-los-angeles?adjust_creative=X5Beq4YFcWJGL3TdpUzGVg&utm_campaign=yelp_api_v3&utm_medium=api_v3_business_search&utm_source=X5Beq4YFcWJGL3TdpUzGVg,bfi2zS87SqiSDaLjBV-yfQ,34.0751281,-118.2535331,streetvendors,"Street Vendors",2
"Hot Dog Lady",66,4.5,"W Sunset Blvd And Sutherland St",,"Los Angeles",CA,90026,https://www.yelp.com/biz/hot-dog-lady-los-angeles-3?adjust_creative=X5Beq4YFcWJGL3TdpUzGVg&utm_campaign=yelp_api_v3&utm_medium=api_v3_business_search&utm_source=X5Beq4YFcWJGL3TdpUzGVg,M97EK0ga4dT9ldwHT3_i9Q,34.07509,-118.2535,foodstands,"Food Stands",2
"Elotero de Echo Park Lake",9,4.5,"751 N Echo Park Ave",,"Los Angeles",CA,90026,https://www.yelp.com/biz/elotero-de-echo-park-lake-los-angeles?adjust_creative=X5Beq4YFcWJGL3TdpUzGVg&utm_campaign=yelp_api_v3&utm_medium=api_v3_business_search&utm_source=X5Beq4YFcWJGL3TdpUzGVg,BD1-vlrTh-u5iGafy_cOlg,34.0733179274729,-118.26001200825,streetvendors,"Street Vendors",2
"Bacon Wrapped Goodness",2,5.0,"751 Echo Park Ave",,"Los Angeles",CA,90026,https://www.yelp.com/biz/bacon-wrapped-goodness-los-angeles-2?adjust_creative=X5Beq4YFcWJGL3TdpUzGVg&utm_campaign=yelp_api_v3&utm_medium=api_v3_business_search&utm_source=X5Beq4YFcWJGL3TdpUzGVg,sbM_uyv60wadzZXVV2hPKw,34.07335,-118.26049,hotdog,"Hot Dogs",2
"Slc Boat House Bistro",9,5.0,"751 Echo Park Ave",,"Los Angeles",CA,90026,https://www.yelp.com/biz/slc-boat-house-bistro-los-angeles?adjust_creative=X5Beq4YFcWJGL3TdpUzGVg&utm_campaign=yelp_api_v3&utm_medium=api_v3_business_search&utm_source=X5Beq4YFcWJGL3TdpUzGVg,2C43AtCqLMLg4OP5oc3_0w,34.07335,-118.26049,newamerican,"American (New)",2
"Echo Park Lake",539,4.0,"751 Echo Park Ave",,"Los Angeles",CA,90026,https://www.yelp.com/biz/echo-park-lake-los-angeles-4?adjust_creative=X5Beq4YFcWJGL3TdpUzGVg&utm_campaign=yelp_api_v3&utm_medium=api_v3_business_search&utm_source=X5Beq4YFcWJGL3TdpUzGVg,hgl5eoGwhOBPAXLnJRrePw,34.07335,-118.26049,parks,Parks,2
"Larchmont Bungalow Cafe",480,4.5,"2110 Sunset Blvd","Ste N","Los Angeles",CA,90026,https://www.yelp.com/biz/larchmont-bungalow-cafe-los-angeles?adjust_creative=X5Beq4YFcWJGL3TdpUzGVg&utm_campaign=yelp_api_v3&utm_medium=api_v3_business_search&utm_source=X5Beq4YFcWJGL3TdpUzGVg,puo151bPwqvTl46LYZyOsA,34.07718,-118.26406,cafes,Cafes,2
"El Compadre",798,3.5,"1449 W Sunset Blvd",,"Los Angeles",CA,90026,https://www.yelp.com/biz/el-compadre-los-angeles-9?adjust_creative=X5Beq4YFcWJGL3TdpUzGVg&utm_campaign=yelp_api_v3&utm_medium=api_v3_business_search&utm_source=X5Beq4YFcWJGL3TdpUzGVg,2hWFIL6qJI6FgqmKdXLFKA,34.07513,-118.25307,mexican,Mexican,2
"Tacos Mexico",88,3.0,"1538 Glendale Blvd",,"Los Angeles",CA,90026,https://www.yelp.com/biz/tacos-mexico-los-angeles?adjust_creative=X5Beq4YFcWJGL3TdpUzGVg&utm_campaign=yelp_api_v3&utm_medium=api_v3_business_search&utm_source=X5Beq4YFcWJGL3TdpUzGVg,9IwD44Q0z9onNIyr6q64_g,34.082695171237,-118.259922489524,mexican,Mexican,2
7-Eleven,15,3.0,"1550 N Glendale",,"Los Angeles",CA,90026,https://www.yelp.com/biz/7-eleven-los-angeles-80?adjust_creative=X5Beq4YFcWJGL3TdpUzGVg&utm_campaign=yelp_api_v3&utm_medium=api_v3_business_search&utm_source=X5Beq4YFcWJGL3TdpUzGVg,fZYkVW6V90GnyZ91YybQ1A,34.0830312795732,-118.259550253911,convenience,"Convenience Stores",2
"Pizza Buona",525,4.0,"922 N Alvarado St","Ste C","Los Angeles",CA,90026,https://www.yelp.com/biz/pizza-buona-los-angeles-2?adjust_creative=X5Beq4YFcWJGL3TdpUzGVg&utm_campaign=yelp_api_v3&utm_medium=api_v3_business_search&utm_source=X5Beq4YFcWJGL3TdpUzGVg,i19CwmeDTZw9Zqmr6TUhXg,34.0759909,-118.2640973,pizza,Pizza,2
"Roots & Rye",280,5.0,"2134 Sunset Blvd","Ste D","Los Angeles",CA,90026,https://www.yelp.com/biz/roots-and-rye-los-angeles-4?adjust_creative=X5Beq4YFcWJGL3TdpUzGVg&utm_campaign=yelp_api_v3&utm_medium=api_v3_business_search&utm_source=X5Beq4YFcWJGL3TdpUzGVg,teOH2ATgXmnGGREl05EMbg,34.07716,-118.264675,acaibowls,"Acai Bowls",2
"Mohawk Bend",2446,4.0,"2141 W Sunset Blvd",,"Los Angeles",CA,90026,https://www.yelp.com/biz/mohawk-bend-los-angeles?adjust_creative=X5Beq4YFcWJGL3TdpUzGVg&utm_campaign=yelp_api_v3&utm_medium=api_v3_business_search&utm_source=X5Beq4YFcWJGL3TdpUzGVg,NffHWFzlhlsPvl06guR2gQ,34.0775496584095,-118.264732207155,gastropubs,Gastropubs,2
Cinnaholic,371,4.0,"2134 Sunset Blvd","Ste E","Los Angeles",CA,90026,https://www.yelp.com/biz/cinnaholic-los-angeles?adjust_creative=X5Beq4YFcWJGL3TdpUzGVg&utm_campaign=yelp_api_v3&utm_medium=api_v3_business_search&utm_source=X5Beq4YFcWJGL3TdpUzGVg,H4myDD4D_iOAH0QvzOfDUQ,34.07715842,-118.2646873705532,bakeries,Bakeries,2
"The Habit Burger Grill",160,3.5,"2134 W. Sunset Blvd.","Suite A","Los Angeles",CA,90026,https://www.yelp.com/biz/the-habit-burger-grill-los-angeles-20?adjust_creative=X5Beq4YFcWJGL3TdpUzGVg&utm_campaign=yelp_api_v3&utm_medium=api_v3_business_search&utm_source=X5Beq4YFcWJGL3TdpUzGVg,1fAnrUJOTGV4ZwP5WBrlsw,34.07704,-118.26469,salad,Salad,2
"Chipotle Mexican Grill",72,2.5,"2134 W Sunset Blvd","Ste F","Los Angeles",CA,90026,https://www.yelp.com/biz/chipotle-mexican-grill-los-angeles-60?adjust_creative=X5Beq4YFcWJGL3TdpUzGVg&utm_campaign=yelp_api_v3&utm_medium=api_v3_business_search&utm_source=X5Beq4YFcWJGL3TdpUzGVg,QIH9aTg0nLXh4_aZMzugag,34.0771453743465,-118.264760451571,mexican,Mexican,2
Starbucks,197,3.5,"2134 W Sunset Blvd",G,"Los Angeles",CA,90026,https://www.yelp.com/biz/starbucks-los-angeles-557?adjust_creative=X5Beq4YFcWJGL3TdpUzGVg&utm_campaign=yelp_api_v3&utm_medium=api_v3_business_search&utm_source=X5Beq4YFcWJGL3TdpUzGVg,D4dSsk0Z8-CvCe2uEJ4fKA,34.077232,-118.26489,coffee,"Coffee & Tea",2
"Mayas Tacos Market",175,4.0,"1600 N Alvarado St",,"Los Angeles",CA,90026,https://www.yelp.com/biz/mayas-tacos-market-los-angeles?adjust_creative=X5Beq4YFcWJGL3TdpUzGVg&utm_campaign=yelp_api_v3&utm_medium=api_v3_business_search&utm_source=X5Beq4YFcWJGL3TdpUzGVg,3plBRIoQ8N3Bdlxm3jnbhw,34.0833854675293,-118.259506225586,mexican,Mexican,2
"Cosmic Vinyl",60,4.5,"2149 W Sunset Blvd",,"Los Angeles",CA,90026,https://www.yelp.com/biz/cosmic-vinyl-los-angeles?adjust_creative=X5Beq4YFcWJGL3TdpUzGVg&utm_campaign=yelp_api_v3&utm_medium=api_v3_business_search&utm_source=X5Beq4YFcWJGL3TdpUzGVg,AmU6oM2rPjWytXXUHkDZkA,34.0775249,-118.2648699,vinyl_records,"Vinyl Records",2
"Andante Coffee Roasters",105,4.0,"2201 W Sunset Blvd",,"Los Angeles",CA,90026,https://www.yelp.com/biz/andante-coffee-roasters-los-angeles-2?adjust_creative=X5Beq4YFcWJGL3TdpUzGVg&utm_campaign=yelp_api_v3&utm_medium=api_v3_business_search&utm_source=X5Beq4YFcWJGL3TdpUzGVg,rvJJaTTQ5rYN2fZNLUvWRA,34.07778,-118.26551,coffee,"Coffee & Tea",2
Randyland,86,5.0,"1648 Lemoyne St",,"Los Angeles",CA,90026,https://www.yelp.com/biz/randyland-los-angeles?adjust_creative=X5Beq4YFcWJGL3TdpUzGVg&utm_campaign=yelp_api_v3&utm_medium=api_v3_business_search&utm_source=X5Beq4YFcWJGL3TdpUzGVg,NdGZjoiNG0cMNnk8HODoNw,34.083685278083,-118.255994059145,localflavor,"Local Flavor",2
"Bar Bandini",128,4.0,"2150 Sunset Blvd",,"Los Angeles",CA,90026,https://www.yelp.com/biz/bar-bandini-los-angeles-2?adjust_creative=X5Beq4YFcWJGL3TdpUzGVg&utm_campaign=yelp_api_v3&utm_medium=api_v3_business_search&utm_source=X5Beq4YFcWJGL3TdpUzGVg,8NtqxK2k3xQ8ODKm7-EJ0A,34.0771713256836,-118.265487670898,bars,Bars,2
"The Douglas",33,4.5,"1400 W Sunset Blvd",,"Los Angeles",CA,90026,https://www.yelp.com/biz/the-douglas-los-angeles?adjust_creative=X5Beq4YFcWJGL3TdpUzGVg&utm_campaign=yelp_api_v3&utm_medium=api_v3_business_search&utm_source=X5Beq4YFcWJGL3TdpUzGVg,XIDSjZsBkra6y4HsSOD0eQ,34.074224,-118.252348,burgers,Burgers,2
"El Autentico Restaurant",1,3.0,"1400 W Sunset Blvd",,"Los Angeles",CA,90026,https://www.yelp.com/biz/el-autentico-restaurant-los-angeles?adjust_creative=X5Beq4YFcWJGL3TdpUzGVg&utm_campaign=yelp_api_v3&utm_medium=api_v3_business_search&utm_source=X5Beq4YFcWJGL3TdpUzGVg,LnDaBOTEkOhzVwikDJutKA,34.0742835998535,-118.252395629883,restaurants,Restaurants,2
Yoga-urt,122,4.5,"2211 W Sunset Blvd",,"Los Angeles",CA,90026,https://www.yelp.com/biz/yoga-urt-los-angeles?adjust_creative=X5Beq4YFcWJGL3TdpUzGVg&utm_campaign=yelp_api_v3&utm_medium=api_v3_business_search&utm_source=X5Beq4YFcWJGL3TdpUzGVg,vsRKNraKeeddoOXL2btQ5A,34.07783,-118.26559,icecream,"Ice Cream & Frozen Yogurt",2
"Valerie Echo Park",179,4.0,"1665 Echo Park Ave",,"Los Angeles",CA,90026,https://www.yelp.com/biz/valerie-echo-park-los-angeles-4?adjust_creative=X5Beq4YFcWJGL3TdpUzGVg&utm_campaign=yelp_api_v3&utm_medium=api_v3_business_search&utm_source=X5Beq4YFcWJGL3TdpUzGVg,rc1rLqPE0j06aW7CR-McpQ,34.0833692539894,-118.254551868315,coffee,"Coffee & Tea",2
"Taco Stand",3,4.5,"N Alvarado St & Santa Ynez St",,"Los Angeles",CA,90026,https://www.yelp.com/biz/taco-stand-los-angeles?adjust_creative=X5Beq4YFcWJGL3TdpUzGVg&utm_campaign=yelp_api_v3&utm_medium=api_v3_business_search&utm_source=X5Beq4YFcWJGL3TdpUzGVg,9Z1AGTmhWBiYYGnUruRTjg,34.0751922376793,-118.264955277405,foodstands,"Food Stands",2
"Tacos El Pinche guero",1,5.0,"1411 W Sunset Blvd",,"Los Angeles",CA,90026,https://www.yelp.com/biz/tacos-el-pinche-guero-los-angeles?adjust_creative=X5Beq4YFcWJGL3TdpUzGVg&utm_campaign=yelp_api_v3&utm_medium=api_v3_business_search&utm_source=X5Beq4YFcWJGL3TdpUzGVg,RCS7Dk1G_e_haD4jom4TuA,34.074589,-118.251802,tacos,Tacos,2
"King Bowl",37,4.0,"2214 W Sunset Blvd",,"Los Angeles",CA,90026,https://www.yelp.com/biz/king-bowl-los-angeles?adjust_creative=X5Beq4YFcWJGL3TdpUzGVg&utm_campaign=yelp_api_v3&utm_medium=api_v3_business_search&utm_source=X5Beq4YFcWJGL3TdpUzGVg,S1WK6Ptg0j0gP9OJX9QaXw,34.0780540246664,-118.266391679098,chinese,Chinese,2
"Button Mash",633,4.0,"1391 Sunset Blvd",,"Los Angeles",CA,90026,https://www.yelp.com/biz/button-mash-los-angeles?adjust_creative=X5Beq4YFcWJGL3TdpUzGVg&utm_campaign=yelp_api_v3&utm_medium=api_v3_business_search&utm_source=X5Beq4YFcWJGL3TdpUzGVg,H4ew518bqV4ew61g-brTrQ,34.073949300225394,-118.25160456566232,asianfusion,"Asian Fusion",2
7-Eleven,23,3.0,"2200 W Sunset Blvd",,"Los Angeles",CA,90026,https://www.yelp.com/biz/7-eleven-los-angeles-16?adjust_creative=X5Beq4YFcWJGL3TdpUzGVg&utm_campaign=yelp_api_v3&utm_medium=api_v3_business_search&utm_source=X5Beq4YFcWJGL3TdpUzGVg,ZF8XCTNW9e5pBy7iIp2paw,34.0776796284327,-118.266410082579,convenience,"Convenience Stores",2
"Tamales Alberto 2",42,4.0,"1378 W Sunset Blvd",,"Los Angeles",CA,90026,https://www.yelp.com/biz/tamales-alberto-2-los-angeles?adjust_creative=X5Beq4YFcWJGL3TdpUzGVg&utm_campaign=yelp_api_v3&utm_medium=api_v3_business_search&utm_source=X5Beq4YFcWJGL3TdpUzGVg,EVqfbQknhcMEF_jKdhTspA,34.0735424641043,-118.251839,mexican,Mexican,2
"CrepeEffect Cafe",10,4.5,"1378 Sunset Blvd",,"Los Angeles",CA,90026,https://www.yelp.com/biz/crepeeffect-cafe-los-angeles?adjust_creative=X5Beq4YFcWJGL3TdpUzGVg&utm_campaign=yelp_api_v3&utm_medium=api_v3_business_search&utm_source=X5Beq4YFcWJGL3TdpUzGVg,JZKfHgFGqlcUEZsLIk7sDg,34.073443347357546,-118.25185396118395,tradamerican,"American (Traditional)",2
"Bangkok Palace",295,4.0,"2202 W Sunset Blvd",,"Los Angeles",CA,90026,https://www.yelp.com/biz/bangkok-palace-los-angeles?adjust_creative=X5Beq4YFcWJGL3TdpUzGVg&utm_campaign=yelp_api_v3&utm_medium=api_v3_business_search&utm_source=X5Beq4YFcWJGL3TdpUzGVg,GJLJ368dETITnVruS9Lo2g,34.0777913739074,-118.266602994823,thai,Thai,2
"Silverlake Ramen 2GO",115,3.5,"2212 Sunset Blvd",,"Los Angeles",CA,90026,https://www.yelp.com/biz/silverlake-ramen-2go-los-angeles-2?adjust_creative=X5Beq4YFcWJGL3TdpUzGVg&utm_campaign=yelp_api_v3&utm_medium=api_v3_business_search&utm_source=X5Beq4YFcWJGL3TdpUzGVg,uf5cJfhUJi323sGPVzZb5g,34.0780085,-118.2663599,ramen,Ramen,2
"Lam Way Bakery",17,4.5,"1370 W Sunset Blvd",,"Los Angeles",CA,90026,https://www.yelp.com/biz/lam-way-bakery-los-angeles?adjust_creative=X5Beq4YFcWJGL3TdpUzGVg&utm_campaign=yelp_api_v3&utm_medium=api_v3_business_search&utm_source=X5Beq4YFcWJGL3TdpUzGVg,2S5ea_nqM7RcFLLsM3Wjhw,34.07325,-118.2517,bakeries,Bakeries,2
"Domino's Pizza",75,3.0,"1381 W Sunset Blvd","Ste B","Los Angeles",CA,90026,https://www.yelp.com/biz/dominos-pizza-los-angeles-51?adjust_creative=X5Beq4YFcWJGL3TdpUzGVg&utm_campaign=yelp_api_v3&utm_medium=api_v3_business_search&utm_source=X5Beq4YFcWJGL3TdpUzGVg,90WjnCrzq5QNkdcruR0h8Q,34.073535,-118.251187,pizza,Pizza,2
OTOTO,84,4.0,"1360 Allison Ave",,"Los Angeles",CA,90026,https://www.yelp.com/biz/ototo-los-angeles-2?adjust_creative=X5Beq4YFcWJGL3TdpUzGVg&utm_campaign=yelp_api_v3&utm_medium=api_v3_business_search&utm_source=X5Beq4YFcWJGL3TdpUzGVg,gAMhVggfelvAxE40Bg-ywQ,34.07293667,-118.25160283,bars,Bars,2
Tsubaki,294,4.0,"1356 Allison Ave",,"Los Angeles",CA,90026,https://www.yelp.com/biz/tsubaki-los-angeles-5?adjust_creative=X5Beq4YFcWJGL3TdpUzGVg&utm_campaign=yelp_api_v3&utm_medium=api_v3_business_search&utm_source=X5Beq4YFcWJGL3TdpUzGVg,Aq1vM8LCcb8mdpCOKCdlsw,34.07267,-118.25178,izakaya,Izakaya,2
"Jack in the Box",38,3.0,"1710 Glendale Blvd",,"Echo Park",CA,90026,https://www.yelp.com/biz/jack-in-the-box-echo-park-2?adjust_creative=X5Beq4YFcWJGL3TdpUzGVg&utm_campaign=yelp_api_v3&utm_medium=api_v3_business_search&utm_source=X5Beq4YFcWJGL3TdpUzGVg,qa01QqMZb1r3wWSYoJAVRQ,34.08601075607527,-118.25956936066112,burgers,Burgers,2
"Mugshot Coffee Roasters",108,4.5,"1728 Glendale Blvd","Ste 5","Los Angeles",CA,90026,https://www.yelp.com/biz/mugshot-coffee-roasters-los-angeles-3?adjust_creative=X5Beq4YFcWJGL3TdpUzGVg&utm_campaign=yelp_api_v3&utm_medium=api_v3_business_search&utm_source=X5Beq4YFcWJGL3TdpUzGVg,e__NRme7iVischX3JjM65Q,34.08652,-118.25938,coffee,"Coffee & Tea",2
"Tacos Bob",18,5.0,"2511 W Sunset Blvd",,"Los Angeles",CA,90026,https://www.yelp.com/biz/tacos-bob-los-angeles?adjust_creative=X5Beq4YFcWJGL3TdpUzGVg&utm_campaign=yelp_api_v3&utm_medium=api_v3_business_search&utm_source=X5Beq4YFcWJGL3TdpUzGVg,rcsTEPiCJvT-f8rFBUC5Mw,34.0794074282981,-118.268593271781,mexican,Mexican,2
"Michael Jackson's Thriller House",1,5.0,"1345 Carroll Ave",,"Los Angeles",CA,90026,https://www.yelp.com/biz/michael-jacksons-thriller-house-los-angeles?adjust_creative=X5Beq4YFcWJGL3TdpUzGVg&utm_campaign=yelp_api_v3&utm_medium=api_v3_business_search&utm_source=X5Beq4YFcWJGL3TdpUzGVg,6E8MD572ODUtm30shRX8kQ,34.06959,-118.25455,localflavor,"Local Flavor",2
"The Charmed House",1,5.0,"1329 Carroll Ave",,"Los Angeles",CA,90026,https://www.yelp.com/biz/the-charmed-house-los-angeles?adjust_creative=X5Beq4YFcWJGL3TdpUzGVg&utm_campaign=yelp_api_v3&utm_medium=api_v3_business_search&utm_source=X5Beq4YFcWJGL3TdpUzGVg,e03t6Ur6dunoZugkX9P56Q,34.0694,-118.25411,landmarks,"Landmarks & Historical Buildings",2
"Marielas Taco",173,4.0,"2501 W Sunset Blvd","Ste B","Los Angeles",CA,90026,https://www.yelp.com/biz/marielas-taco-los-angeles-2?adjust_creative=X5Beq4YFcWJGL3TdpUzGVg&utm_campaign=yelp_api_v3&utm_medium=api_v3_business_search&utm_source=X5Beq4YFcWJGL3TdpUzGVg,fiNsYM1eA1oxred22tfpjA,34.07992,-118.26904,mexican,Mexican,2
"Eightfold Coffee",268,4.0,"1294 W Sunset Blvd",,"Los Angeles",CA,90026,https://www.yelp.com/biz/eightfold-coffee-los-angeles-4?adjust_creative=X5Beq4YFcWJGL3TdpUzGVg&utm_campaign=yelp_api_v3&utm_medium=api_v3_business_search&utm_source=X5Beq4YFcWJGL3TdpUzGVg,I90wd2SGfFc6vmja57qpxA,34.0710914418663,-118.250747892565,coffee,"Coffee & Tea",2
"Lento Market",97,5.0,"1288 Sunset Blvd",,"Los Angeles",CA,90026,https://www.yelp.com/biz/lento-market-los-angeles?adjust_creative=X5Beq4YFcWJGL3TdpUzGVg&utm_campaign=yelp_api_v3&utm_medium=api_v3_business_search&utm_source=X5Beq4YFcWJGL3TdpUzGVg,lEx9XzKlUpAHWGgYNC1wqA,34.07101,-118.25093,vegan,Vegan,NA
"LA Bagels Food Truck",15,4.0,"2511 W Sunset Blvd",,"Los Angeles",CA,90026,https://www.yelp.com/biz/la-bagels-food-truck-los-angeles?adjust_creative=X5Beq4YFcWJGL3TdpUzGVg&utm_campaign=yelp_api_v3&utm_medium=api_v3_business_search&utm_source=X5Beq4YFcWJGL3TdpUzGVg,PQ5HIaXsNU71btSPlp290Q,34.08002,-118.26925,foodtrucks,"Food Trucks",NA
"Elio’s Wood Fire Pizza",181,4.5,"2517 Sunset Blvd",,"Los Angeles",CA,90026,https://www.yelp.com/biz/elio-s-wood-fire-pizza-los-angeles?adjust_creative=X5Beq4YFcWJGL3TdpUzGVg&utm_campaign=yelp_api_v3&utm_medium=api_v3_business_search&utm_source=X5Beq4YFcWJGL3TdpUzGVg,3bcwe6fXqraCf3vThCGrxw,34.080274,-118.269836,pizza,Pizza,NA
"Tribal Cafe",806,4.5,"1651 W Temple St",,"Los Angeles",CA,90026,https://www.yelp.com/biz/tribal-cafe-los-angeles?adjust_creative=X5Beq4YFcWJGL3TdpUzGVg&utm_campaign=yelp_api_v3&utm_medium=api_v3_business_search&utm_source=X5Beq4YFcWJGL3TdpUzGVg,hCK62V2SW6nRoR0NK9E88g,34.06876,-118.26261,juicebars,"Juice Bars & Smoothies",NA
Freedman's,222,3.5,"2619 Sunset Blvd",,"Los Angeles",CA,90026,https://www.yelp.com/biz/freedmans-los-angeles?adjust_creative=X5Beq4YFcWJGL3TdpUzGVg&utm_campaign=yelp_api_v3&utm_medium=api_v3_business_search&utm_source=X5Beq4YFcWJGL3TdpUzGVg,hsg7A_rxF-G4Zp0TgAsIfw,34.08052,-118.26991,cocktailbars,"Cocktail Bars",NA
Guisados,2250,4.5,"1261 W Sunset Blvd",,"Los Angeles",CA,90026,https://www.yelp.com/biz/guisados-los-angeles-3?adjust_creative=X5Beq4YFcWJGL3TdpUzGVg&utm_campaign=yelp_api_v3&utm_medium=api_v3_business_search&utm_source=X5Beq4YFcWJGL3TdpUzGVg,BDRVlHnK4l0T0ANb7M-Eqg,34.0702395145121,-118.250448424643,mexican,Mexican,NA
"Los Sanchos",8,5.0,"1642 W Temple St",,"Los Angeles",CA,90026,https://www.yelp.com/biz/los-sanchos-los-angeles?adjust_creative=X5Beq4YFcWJGL3TdpUzGVg&utm_campaign=yelp_api_v3&utm_medium=api_v3_business_search&utm_source=X5Beq4YFcWJGL3TdpUzGVg,K6UpTkGMTPt9wN3aqKkEmA,34.068417,-118.2623042,foodstands,"Food Stands",NA
"Los Sanchos Catering",1,5.0,,,"Los Angeles",CA,90026,https://www.yelp.com/biz/los-sanchos-catering-los-angeles?adjust_creative=X5Beq4YFcWJGL3TdpUzGVg&utm_campaign=yelp_api_v3&utm_medium=api_v3_business_search&utm_source=X5Beq4YFcWJGL3TdpUzGVg,bffbIw3IixjgN4ky8J3rdw,34.0683741867542,-118.262231871486,foodtrucks,"Food Trucks",NA
"El Majahual Pupuseria",51,3.0,"1925 W Temple St",,"Los Angeles",CA,90026,https://www.yelp.com/biz/el-majahual-pupuseria-los-angeles?adjust_creative=X5Beq4YFcWJGL3TdpUzGVg&utm_campaign=yelp_api_v3&utm_medium=api_v3_business_search&utm_source=X5Beq4YFcWJGL3TdpUzGVg,iOBe81a8lSk3V4lk_C-M3g,34.0698623657227,-118.265830993652,salvadoran,Salvadoran,NA
"Tamales Alberto",374,4.0,"1644 W Temple St",,"Los Angeles",CA,90026,https://www.yelp.com/biz/tamales-alberto-los-angeles-2?adjust_creative=X5Beq4YFcWJGL3TdpUzGVg&utm_campaign=yelp_api_v3&utm_medium=api_v3_business_search&utm_source=X5Beq4YFcWJGL3TdpUzGVg,f-1shORInoTnFOXf6qq8Ww,34.068347,-118.2625568,mexican,Mexican,NA
"1642 Beer and Wine",177,4.5,"1642 W Temple St",,"Los Angeles",CA,90026,https://www.yelp.com/biz/1642-beer-and-wine-los-angeles?adjust_creative=X5Beq4YFcWJGL3TdpUzGVg&utm_campaign=yelp_api_v3&utm_medium=api_v3_business_search&utm_source=X5Beq4YFcWJGL3TdpUzGVg,UkHouQ7wLTsCeUE7zLN_Xg,34.068254,-118.26235,bars,Bars,NA
SiSiG,50,4.5,"1714 W Temple St",,"Los Angeles",CA,90026,https://www.yelp.com/biz/sisig-los-angeles-2?adjust_creative=X5Beq4YFcWJGL3TdpUzGVg&utm_campaign=yelp_api_v3&utm_medium=api_v3_business_search&utm_source=X5Beq4YFcWJGL3TdpUzGVg,OV0dGThU7E0ZevFSuSbqZQ,34.06874,-118.26383,filipino,Filipino,NA
"Bloom & Plume Coffee",221,4.5,"1638 W Temple St",,"Los Angeles",CA,90026,https://www.yelp.com/biz/bloom-and-plume-coffee-los-angeles-4?adjust_creative=X5Beq4YFcWJGL3TdpUzGVg&utm_campaign=yelp_api_v3&utm_medium=api_v3_business_search&utm_source=X5Beq4YFcWJGL3TdpUzGVg,25TCXWyE3hW3vbeKUI0Ohg,34.06816,-118.26232,coffee,"Coffee & Tea",NA
Chibogs,63,4.0,"1925 W Temple St","Ste 103","Los Angeles",CA,90026,https://www.yelp.com/biz/chibogs-los-angeles?adjust_creative=X5Beq4YFcWJGL3TdpUzGVg&utm_campaign=yelp_api_v3&utm_medium=api_v3_business_search&utm_source=X5Beq4YFcWJGL3TdpUzGVg,5c1GKrv1CjBFXBWheS8MXw,34.0699222,-118.26613932072506,filipino,Filipino,NA
"Khun Mae Ploy Thai Cuisine",71,4.0,"2703 Sunset Blvd",,"Los Angeles",CA,90026,https://www.yelp.com/biz/khun-mae-ploy-thai-cuisine-los-angeles-2?adjust_creative=X5Beq4YFcWJGL3TdpUzGVg&utm_campaign=yelp_api_v3&utm_medium=api_v3_business_search&utm_source=X5Beq4YFcWJGL3TdpUzGVg,6qbzxyz_EB5ZU73y-0gTaQ,34.0809536725139,-118.270317725837,thai,Thai,NA
Starbucks,1,5.0,"330 N Westlake Ave",,"Los Angeles",CA,90026,https://www.yelp.com/biz/starbucks-los-angeles-556?adjust_creative=X5Beq4YFcWJGL3TdpUzGVg&utm_campaign=yelp_api_v3&utm_medium=api_v3_business_search&utm_source=X5Beq4YFcWJGL3TdpUzGVg,Mk7zmXn1RXHpsK4FBUHefQ,34.06932443860141,-118.26588415902252,coffee,"Coffee & Tea",NA
"Leo's Tacos Truck",402,4.0,"415 Glendale Blvd",,"Los Angeles",CA,90026,https://www.yelp.com/biz/leos-tacos-truck-los-angeles-3?adjust_creative=X5Beq4YFcWJGL3TdpUzGVg&utm_campaign=yelp_api_v3&utm_medium=api_v3_business_search&utm_source=X5Beq4YFcWJGL3TdpUzGVg,5XZdMmOjLjvdZwgRzro6lQ,34.067768,-118.261123,mexican,Mexican,NA
"Bar Henry",87,4.5,"1228 W Sunset Blvd",,"Los Angeles",CA,90026,https://www.yelp.com/biz/bar-henry-los-angeles?adjust_creative=X5Beq4YFcWJGL3TdpUzGVg&utm_campaign=yelp_api_v3&utm_medium=api_v3_business_search&utm_source=X5Beq4YFcWJGL3TdpUzGVg,uE7I0tn8B5ws0aUOfflKUw,34.069037,-118.2507193,cocktailbars,"Cocktail Bars",NA
"Echo Park Market",13,4.0,"1940 Echo Park Ave",,"Los Angeles",CA,90026,https://www.yelp.com/biz/echo-park-market-los-angeles-5?adjust_creative=X5Beq4YFcWJGL3TdpUzGVg&utm_campaign=yelp_api_v3&utm_medium=api_v3_business_search&utm_source=X5Beq4YFcWJGL3TdpUzGVg,i4GGQUXaStP5LAHa65a4FA,34.0869140625,-118.250503540039,beer_and_wine,"Beer, Wine & Spirits",NA
"Tacos + Quesadillas",3,3.5,"1229 Sunset Blvd",,"Los Angeles",CA,90026,https://www.yelp.com/biz/tacos-quesadillas-los-angeles?adjust_creative=X5Beq4YFcWJGL3TdpUzGVg&utm_campaign=yelp_api_v3&utm_medium=api_v3_business_search&utm_source=X5Beq4YFcWJGL3TdpUzGVg,L79oiifUTc_f9Fx3xIzYgg,34.06909292302754,-118.2501719892025,tacos,Tacos,NA
McDonald's,86,2.0,"405 N Alvarado St",,"Los Angeles",CA,90026,https://www.yelp.com/biz/mcdonalds-los-angeles-49?adjust_creative=X5Beq4YFcWJGL3TdpUzGVg&utm_campaign=yelp_api_v3&utm_medium=api_v3_business_search&utm_source=X5Beq4YFcWJGL3TdpUzGVg,gqG1BiNRp43r5FqiFv2-Qg,34.0705721595307,-118.268211185932,hotdogs,"Fast Food",NA
Starbucks,1,5.0,"330 N Westlake Ave",,"Los Angeles",CA,90026,https://www.yelp.com/biz/starbucks-los-angeles-555?adjust_creative=X5Beq4YFcWJGL3TdpUzGVg&utm_campaign=yelp_api_v3&utm_medium=api_v3_business_search&utm_source=X5Beq4YFcWJGL3TdpUzGVg,F2p_d44-9OSmEw65OF_gFQ,34.069262581477,-118.26666831928029,coffee,"Coffee & Tea",NA
"Everett Park",5,4.5,"988-992 Everett St",,"Los Angeles",CA,90026,https://www.yelp.com/biz/everett-park-los-angeles?adjust_creative=X5Beq4YFcWJGL3TdpUzGVg&utm_campaign=yelp_api_v3&utm_medium=api_v3_business_search&utm_source=X5Beq4YFcWJGL3TdpUzGVg,wfY-y6PyQaK6U5VpWAUvdA,34.0699741564246,-118.248750418425,parks,Parks,NA
"El Pollo Loco",173,1.5,"330 N Alvarado St",,"Los Angeles",CA,90026,https://www.yelp.com/biz/el-pollo-loco-los-angeles-69?adjust_creative=X5Beq4YFcWJGL3TdpUzGVg&utm_campaign=yelp_api_v3&utm_medium=api_v3_business_search&utm_source=X5Beq4YFcWJGL3TdpUzGVg,8SeY_Qnzuk1phcnqHGl1gA,34.06988474965309,-118.2679634,hotdogs,"Fast Food",NA
Grá,141,4.5,"1524 Pizarro St",,"Los Angeles",CA,90026,https://www.yelp.com/biz/gr%C3%A1-los-angeles-2?adjust_creative=X5Beq4YFcWJGL3TdpUzGVg&utm_campaign=yelp_api_v3&utm_medium=api_v3_business_search&utm_source=X5Beq4YFcWJGL3TdpUzGVg,cxU5blDB5nnZIkn4amrf5A,34.066696,-118.2607331,pizza,Pizza,NA
"Blues' tacos",7,4.5,"994 Everett",,"Los Angeles",CA,90026,https://www.yelp.com/biz/blues-tacos-los-angeles-3?adjust_creative=X5Beq4YFcWJGL3TdpUzGVg&utm_campaign=yelp_api_v3&utm_medium=api_v3_business_search&utm_source=X5Beq4YFcWJGL3TdpUzGVg,wU3AfboT9oA-lRrXE2-ZQw,34.069772,-118.248242,tacos,Tacos,NA
"Clark Street Echo Park",147,4.0,"331 Glendale Blvd",,"Los Angeles",CA,90026,https://www.yelp.com/biz/clark-street-echo-park-los-angeles?adjust_creative=X5Beq4YFcWJGL3TdpUzGVg&utm_campaign=yelp_api_v3&utm_medium=api_v3_business_search&utm_source=X5Beq4YFcWJGL3TdpUzGVg,r7xlMjc0uCiHYMJSTgDBKw,34.066476,-118.260683,bakeries,Bakeries,NA
"Spain Restaurant",239,3.5,"1866 Glendale Blvd",,"Los Angeles",CA,90026,https://www.yelp.com/biz/spain-restaurant-los-angeles-2?adjust_creative=X5Beq4YFcWJGL3TdpUzGVg&utm_campaign=yelp_api_v3&utm_medium=api_v3_business_search&utm_source=X5Beq4YFcWJGL3TdpUzGVg,iL8MyuLn1CdZb6Y9i-2eLw,34.08948,-118.25886,spanish,Spanish,NA
"The Park's Finest",2136,4.0,"1267 W Temple St",,"Los Angeles",CA,90026,https://www.yelp.com/biz/the-parks-finest-los-angeles?adjust_creative=X5Beq4YFcWJGL3TdpUzGVg&utm_campaign=yelp_api_v3&utm_medium=api_v3_business_search&utm_source=X5Beq4YFcWJGL3TdpUzGVg,eNPaF_hVdpxMkzyq9kenYQ,34.0665313022035,-118.254266053011,bbq,Barbeque,NA
"Gigi's Bakery & Café",745,4.0,"2200 W Temple St",,"Los Angeles",CA,90026,https://www.yelp.com/biz/gigis-bakery-and-caf%C3%A9-los-angeles-2?adjust_creative=X5Beq4YFcWJGL3TdpUzGVg&utm_campaign=yelp_api_v3&utm_medium=api_v3_business_search&utm_source=X5Beq4YFcWJGL3TdpUzGVg,fMuuhCBLbcTvu-qZ6ObmfQ,34.0706246,-118.2695113,bakeries,Bakeries,NA
"Ceci's Gastronomia",33,5.0,"2813 Sunset Blvd",,"Los Angeles",CA,90026,https://www.yelp.com/biz/cecis-gastronomia-los-angeles?adjust_creative=X5Beq4YFcWJGL3TdpUzGVg&utm_campaign=yelp_api_v3&utm_medium=api_v3_business_search&utm_source=X5Beq4YFcWJGL3TdpUzGVg,OD9Ff7dB3Fo9w-P4_MutGw,34.08208,-118.27184,pastashops,"Pasta Shops",NA
Laveta,161,4.5,"318 Glendale Blvd",,"Los Angeles",CA,90026,https://www.yelp.com/biz/laveta-los-angeles?adjust_creative=X5Beq4YFcWJGL3TdpUzGVg&utm_campaign=yelp_api_v3&utm_medium=api_v3_business_search&utm_source=X5Beq4YFcWJGL3TdpUzGVg,Hns7-VgOlBpv_089xqTBZA,34.0660603325114,-118.260219879448,coffee,"Coffee & Tea",NA
Thunderbolt,91,4.5,"1263 W Temple St",,"Los Angeles",CA,90026,https://www.yelp.com/biz/thunderbolt-los-angeles?adjust_creative=X5Beq4YFcWJGL3TdpUzGVg&utm_campaign=yelp_api_v3&utm_medium=api_v3_business_search&utm_source=X5Beq4YFcWJGL3TdpUzGVg,k_xuPi2TGVIubp7qWMSGIA,34.066426,-118.2541135,bars,Bars,NA
"Gold Glove Bar",4,5.0,"1000 Vin Scully Ave",,"Los Angeles",CA,90026,https://www.yelp.com/biz/gold-glove-bar-los-angeles?adjust_creative=X5Beq4YFcWJGL3TdpUzGVg&utm_campaign=yelp_api_v3&utm_medium=api_v3_business_search&utm_source=X5Beq4YFcWJGL3TdpUzGVg,gKtBH1a5bb3Wfny-UuyZtg,34.07358,-118.24013,sportsbars,"Sports Bars",NA
Speakeasy,3,4.5,"1000 Vin Scully Ave",,"Los Angeles",CA,90026,https://www.yelp.com/biz/speakeasy-los-angeles-3?adjust_creative=X5Beq4YFcWJGL3TdpUzGVg&utm_campaign=yelp_api_v3&utm_medium=api_v3_business_search&utm_source=X5Beq4YFcWJGL3TdpUzGVg,ADZheGYQP6jee0DqTE8K5Q,34.07358,-118.24013,bars,Bars,NA
"Shake Shack",4,4.0,"1000 Vin Scully Ave",,"Los Angeles",CA,90026,https://www.yelp.com/biz/shake-shack-los-angeles-11?adjust_creative=X5Beq4YFcWJGL3TdpUzGVg&utm_campaign=yelp_api_v3&utm_medium=api_v3_business_search&utm_source=X5Beq4YFcWJGL3TdpUzGVg,47OvqIn5wLCuZKx-uZLt5Q,34.07358,-118.24013,icecream,"Ice Cream & Frozen Yogurt",NA
"Angel's tijuana tacos",82,4.0,"1185 Sunset Blvd",,"Los Angeles",CA,90026,https://www.yelp.com/biz/angels-tijuana-tacos-los-angeles-2?adjust_creative=X5Beq4YFcWJGL3TdpUzGVg&utm_campaign=yelp_api_v3&utm_medium=api_v3_business_search&utm_source=X5Beq4YFcWJGL3TdpUzGVg,rODYL9B2ou4K3FoLAZO7GQ,34.0679854054454,-118.250015473398,tacos,Tacos,NA
"La Pergoletta on Sunset",176,4.5,"2827 W Sunset Blvd",,"Los Angeles",CA,90026,https://www.yelp.com/biz/la-pergoletta-on-sunset-los-angeles-7?adjust_creative=X5Beq4YFcWJGL3TdpUzGVg&utm_campaign=yelp_api_v3&utm_medium=api_v3_business_search&utm_source=X5Beq4YFcWJGL3TdpUzGVg,9g3WVqNG0-Y34To6J_9c9Q,34.08233,-118.27219,italian,Italian,NA
"K Bakery",163,4.0,"1258 W Temple St",,"Los Angeles",CA,90026,https://www.yelp.com/biz/k-bakery-los-angeles?adjust_creative=X5Beq4YFcWJGL3TdpUzGVg&utm_campaign=yelp_api_v3&utm_medium=api_v3_business_search&utm_source=X5Beq4YFcWJGL3TdpUzGVg,5oG5qtCEfBQHe1SfP_2pXg,34.066074192524,-118.254081979394,bakeries,Bakeries,NA
"Same Same",311,4.0,"2835 W Sunset Blvd",,"Los Angeles",CA,90026,https://www.yelp.com/biz/same-same-los-angeles?adjust_creative=X5Beq4YFcWJGL3TdpUzGVg&utm_campaign=yelp_api_v3&utm_medium=api_v3_business_search&utm_source=X5Beq4YFcWJGL3TdpUzGVg,Zub7WJxbguc1I5YRWKKDfQ,34.082354,-118.27228,wine_bars,"Wine Bars",NA
"Moon Juice",150,4.0,"2839 West Sunset Blvd",,"Los Angeles",CA,90026,https://www.yelp.com/biz/moon-juice-los-angeles?adjust_creative=X5Beq4YFcWJGL3TdpUzGVg&utm_campaign=yelp_api_v3&utm_medium=api_v3_business_search&utm_source=X5Beq4YFcWJGL3TdpUzGVg,NZpX4f4rHMmyWZTpb-XJ1Q,34.08259,-118.27228,juicebars,"Juice Bars & Smoothies",NA
"Pho Café",1443,3.5,"2841 W Sunset Blvd",,"Los Angeles",CA,90026,https://www.yelp.com/biz/pho-caf%C3%A9-los-angeles-2?adjust_creative=X5Beq4YFcWJGL3TdpUzGVg&utm_campaign=yelp_api_v3&utm_medium=api_v3_business_search&utm_source=X5Beq4YFcWJGL3TdpUzGVg,BedKHD1gtsnsWlVzXVeXNw,34.0827107203484,-118.272322278632,vietnamese,Vietnamese,NA
"La Sorted's",3,4.5,"2847 Sunset Blvd",,"Los Angeles",CA,90026,https://www.yelp.com/biz/la-sorteds-los-angeles?adjust_creative=X5Beq4YFcWJGL3TdpUzGVg&utm_campaign=yelp_api_v3&utm_medium=api_v3_business_search&utm_source=X5Beq4YFcWJGL3TdpUzGVg,KnpOSXddz7AuztneulkSGw,34.08275528791986,-118.27251743767374,pizza,Pizza,NA
"Gemini Bakehouse",31,4.5,"2847 Sunset Blvd",,"Los Angeles",CA,90026,https://www.yelp.com/biz/gemini-bakehouse-los-angeles?adjust_creative=X5Beq4YFcWJGL3TdpUzGVg&utm_campaign=yelp_api_v3&utm_medium=api_v3_business_search&utm_source=X5Beq4YFcWJGL3TdpUzGVg,RljvXXmjNCaq4ZLOgKjqvw,34.08263,-118.27256,bakeries,Bakeries,NA
"Silver Lake",2,4.0,"Silver Lake Blvd W Sunset Blvd",,"Los Angeles",CA,90026,https://www.yelp.com/biz/silver-lake-los-angeles?adjust_creative=X5Beq4YFcWJGL3TdpUzGVg&utm_campaign=yelp_api_v3&utm_medium=api_v3_business_search&utm_source=X5Beq4YFcWJGL3TdpUzGVg,imRkVTtNWHaMh_jdVDyodA,34.0825775478492,-118.272875202362,localflavor,"Local Flavor",NA
"BBQhan sa Bahay Kubo",8,3.5,"2330 W Temple St",,"Los Angeles",CA,90026,https://www.yelp.com/biz/bbqhan-sa-bahay-kubo-los-angeles-2?adjust_creative=X5Beq4YFcWJGL3TdpUzGVg&utm_campaign=yelp_api_v3&utm_medium=api_v3_business_search&utm_source=X5Beq4YFcWJGL3TdpUzGVg,bZKEW0yao8l4uPa_N-2LpA,34.0712204,-118.271637,filipino,Filipino,NA
"Tuhugan Na",2,4.0,"2330 W Temple St",,"Los Angeles",CA,90026,https://www.yelp.com/biz/tuhugan-na-los-angeles?adjust_creative=X5Beq4YFcWJGL3TdpUzGVg&utm_campaign=yelp_api_v3&utm_medium=api_v3_business_search&utm_source=X5Beq4YFcWJGL3TdpUzGVg,-S3rHxYkIAOizPgXeANXbg,34.0712204,-118.271637,bbq,Barbeque,NA
"Bahay Kubo Restaurant",239,3.5,"2330 W Temple St",,"Los Angeles",CA,90026,https://www.yelp.com/biz/bahay-kubo-restaurant-los-angeles?adjust_creative=X5Beq4YFcWJGL3TdpUzGVg&utm_campaign=yelp_api_v3&utm_medium=api_v3_business_search&utm_source=X5Beq4YFcWJGL3TdpUzGVg,jsBYgXptlSR7L6yT-PWNyA,34.0712199,-118.27164,filipino,Filipino,NA
"Hidden Stairways of Silver Lake",10,4.5,"1549 Easterly Ter",,"Los Angeles",CA,90026,https://www.yelp.com/biz/hidden-stairways-of-silver-lake-los-angeles?adjust_creative=X5Beq4YFcWJGL3TdpUzGVg&utm_campaign=yelp_api_v3&utm_medium=api_v3_business_search&utm_source=X5Beq4YFcWJGL3TdpUzGVg,qu3-HMDc329TaKPjvHz-9A,34.087605625391,-118.268664479256,landmarks,"Landmarks & Historical Buildings",NA
Wood,859,4.0,"2861 Sunset Blvd",,"Los Angeles",CA,90026,https://www.yelp.com/biz/wood-los-angeles-8?adjust_creative=X5Beq4YFcWJGL3TdpUzGVg&utm_campaign=yelp_api_v3&utm_medium=api_v3_business_search&utm_source=X5Beq4YFcWJGL3TdpUzGVg,F2W1R7yIvSOqD1xH_F1cZA,34.08292,-118.27289,pizza,Pizza,NA
"Bodega Park",3,5.0,"2852 W Sunset Blvd",,"Los Angeles",CA,90026,https://www.yelp.com/biz/bodega-park-los-angeles?adjust_creative=X5Beq4YFcWJGL3TdpUzGVg&utm_campaign=yelp_api_v3&utm_medium=api_v3_business_search&utm_source=X5Beq4YFcWJGL3TdpUzGVg,l6eEaR8LMTPjSG4aTpxUxg,34.08251,-118.27324,sandwiches,Sandwiches,NA
"Lake Street Community Center",3,4.5,"227 N Lake St",,"Los Angeles",CA,90026,https://www.yelp.com/biz/lake-street-community-center-los-angeles?adjust_creative=X5Beq4YFcWJGL3TdpUzGVg&utm_campaign=yelp_api_v3&utm_medium=api_v3_business_search&utm_source=X5Beq4YFcWJGL3TdpUzGVg,kCEMmbak4mhXtk_kyVzehA,34.06906,-118.27068,parks,Parks,NA
"Lake Street Park",5,4.0,"227 N Lake St",,"Los Angeles",CA,90026,https://www.yelp.com/biz/lake-street-park-los-angeles?adjust_creative=X5Beq4YFcWJGL3TdpUzGVg&utm_campaign=yelp_api_v3&utm_medium=api_v3_business_search&utm_source=X5Beq4YFcWJGL3TdpUzGVg,KMao2Z6CAyQ-Xb1v7ZPUwA,34.06906,-118.27068,parks,Parks,NA
"Baxter Stairways",29,4.5,"2080 Avon St",,"Los Angeles",CA,90026,https://www.yelp.com/biz/baxter-stairways-los-angeles?adjust_creative=X5Beq4YFcWJGL3TdpUzGVg&utm_campaign=yelp_api_v3&utm_medium=api_v3_business_search&utm_source=X5Beq4YFcWJGL3TdpUzGVg,Oim6kNe3fewuVQvt5Xbb_g,34.0883620083332,-118.247272521257,localflavor,"Local Flavor",NA
"Music Box Loop",30,4.0,"Sunset Blvd And Parkman Ave",,"Los Angeles",CA,90026,https://www.yelp.com/biz/music-box-loop-los-angeles?adjust_creative=X5Beq4YFcWJGL3TdpUzGVg&utm_campaign=yelp_api_v3&utm_medium=api_v3_business_search&utm_source=X5Beq4YFcWJGL3TdpUzGVg,2r4d_1Gth9xrKDTOB9H3qg,34.0829201,-118.2733231,hiking,Hiking,NA
"Izakaya Osen",1164,4.5,"2903 Sunset Blvd",,"Los Angeles",CA,90026,https://www.yelp.com/biz/izakaya-osen-los-angeles?adjust_creative=X5Beq4YFcWJGL3TdpUzGVg&utm_campaign=yelp_api_v3&utm_medium=api_v3_business_search&utm_source=X5Beq4YFcWJGL3TdpUzGVg,us0WnDOySVXXXwCqs0AaCw,34.08330553596485,-118.27321390780607,sushi,"Sushi Bars",NA
"Dollar Hits",440,4.0,"2422 W Temple St",,"Los Angeles",CA,90026,https://www.yelp.com/biz/dollar-hits-los-angeles-2?adjust_creative=X5Beq4YFcWJGL3TdpUzGVg&utm_campaign=yelp_api_v3&utm_medium=api_v3_business_search&utm_source=X5Beq4YFcWJGL3TdpUzGVg,pxg3VJKR9sA7cJqgXFTrSw,34.07145,-118.27267,filipino,Filipino,NA
"Lady Byrd Cafe",800,4.0,"2100 Echo Park Ave",,"Los Angeles",CA,90026,https://www.yelp.com/biz/lady-byrd-cafe-los-angeles?adjust_creative=X5Beq4YFcWJGL3TdpUzGVg&utm_campaign=yelp_api_v3&utm_medium=api_v3_business_search&utm_source=X5Beq4YFcWJGL3TdpUzGVg,GT9hiv72iGarl6vx9WM7DQ,34.08957,-118.24977,newamerican,"American (New)",NA
"Tropical Cuban Café",644,4.0,"2900 W Sunset Blvd",,"Los Angeles",CA,90026,https://www.yelp.com/biz/tropical-cuban-caf%C3%A9-los-angeles-2?adjust_creative=X5Beq4YFcWJGL3TdpUzGVg&utm_campaign=yelp_api_v3&utm_medium=api_v3_business_search&utm_source=X5Beq4YFcWJGL3TdpUzGVg,REavVskm3ZTg04AvcOMVRw,34.08278,-118.27362,cafes,Cafes,NA
"Botanica Restaurant & Market",309,4.0,"1620 Silver Lake Blvd",,"Los Angeles",CA,90026,https://www.yelp.com/biz/botanica-restaurant-and-market-los-angeles?adjust_creative=X5Beq4YFcWJGL3TdpUzGVg&utm_campaign=yelp_api_v3&utm_medium=api_v3_business_search&utm_source=X5Beq4YFcWJGL3TdpUzGVg,9qDA6kGLxuZ0bOSYWet4uA,34.088443,-118.268825,newamerican,"American (New)",NA
"Silverlake Lounge",190,3.0,"2906 W Sunset Blvd",,"Los Angeles",CA,90026,https://www.yelp.com/biz/silverlake-lounge-los-angeles?adjust_creative=X5Beq4YFcWJGL3TdpUzGVg&utm_campaign=yelp_api_v3&utm_medium=api_v3_business_search&utm_source=X5Beq4YFcWJGL3TdpUzGVg,d9Fow9oMmrXOaNZrSpFyfg,34.08283,-118.27369,musicvenues,"Music Venues",NA
"My Mom's Bakeshop",57,4.0,"2434 W Temple St",,"Los Angeles",CA,90026,https://www.yelp.com/biz/my-moms-bakeshop-los-angeles?adjust_creative=X5Beq4YFcWJGL3TdpUzGVg&utm_campaign=yelp_api_v3&utm_medium=api_v3_business_search&utm_source=X5Beq4YFcWJGL3TdpUzGVg,J6MO1BfKu-uQfmzvBRS9DA,34.07148,-118.27296,bakeries,Bakeries,NA
"Doubting Thomas",340,4.5,"2510 W Temple St",,"Los Angeles",CA,90026,https://www.yelp.com/biz/doubting-thomas-los-angeles-4?adjust_creative=X5Beq4YFcWJGL3TdpUzGVg&utm_campaign=yelp_api_v3&utm_medium=api_v3_business_search&utm_source=X5Beq4YFcWJGL3TdpUzGVg,8zuw4OVrmrsa4KApcp2edA,34.0718273195023,-118.273199664306,coffee,"Coffee & Tea",NA
"Van Leeuwen Ice Cream",137,4.0,"2925 W Sunset Blvd",,"Los Angeles",CA,90026,https://www.yelp.com/biz/van-leeuwen-ice-cream-los-angeles-3?adjust_creative=X5Beq4YFcWJGL3TdpUzGVg&utm_campaign=yelp_api_v3&utm_medium=api_v3_business_search&utm_source=X5Beq4YFcWJGL3TdpUzGVg,DkNIkM9Teln5xHKtlzLvrQ,34.083585181962,-118.273554533135,icecream,"Ice Cream & Frozen Yogurt",NA
"Lamill Coffee Silverlake",1563,3.5,"1636 Silver Lake Blvd",,"Los Angeles",CA,90026,https://www.yelp.com/biz/lamill-coffee-silverlake-los-angeles?adjust_creative=X5Beq4YFcWJGL3TdpUzGVg&utm_campaign=yelp_api_v3&utm_medium=api_v3_business_search&utm_source=X5Beq4YFcWJGL3TdpUzGVg,etpDBsakwree7-KJpGRXwQ,34.0888256541986,-118.268687480195,coffee,"Coffee & Tea",NA
"Silverlake Ramen",3483,4.0,"2927 W Sunset Blvd",,"Los Angeles",CA,90026,https://www.yelp.com/biz/silverlake-ramen-los-angeles?adjust_creative=X5Beq4YFcWJGL3TdpUzGVg&utm_campaign=yelp_api_v3&utm_medium=api_v3_business_search&utm_source=X5Beq4YFcWJGL3TdpUzGVg,jaLRtJ7YGYcCszfiBFxoHQ,34.0835268538041,-118.273676509195,ramen,Ramen,NA
"Last Call Tacos",19,5.0,"2939 1/2 W Sunset Blvd",,"Los Angeles",CA,90026,https://www.yelp.com/biz/last-call-tacos-los-angeles-2?adjust_creative=X5Beq4YFcWJGL3TdpUzGVg&utm_campaign=yelp_api_v3&utm_medium=api_v3_business_search&utm_source=X5Beq4YFcWJGL3TdpUzGVg,b6PB_Dwhs6dJ0qP_kCXSvw,34.08368234260266,-118.27374443466171,mexican,Mexican,NA
"Thirsty Crow",706,4.0,"2939 W Sunset Blvd",,"Los Angeles",CA,90026,https://www.yelp.com/biz/thirsty-crow-los-angeles?adjust_creative=X5Beq4YFcWJGL3TdpUzGVg&utm_campaign=yelp_api_v3&utm_medium=api_v3_business_search&utm_source=X5Beq4YFcWJGL3TdpUzGVg,96SdIYVwMGRYSKOucSh7tQ,34.08366314455041,-118.27378429437107,bars,Bars,NA
"Rockwood Community Park",1,5.0,"1571 Rockwood St",,"Los Angeles",CA,90026,https://www.yelp.com/biz/rockwood-community-park-los-angeles?adjust_creative=X5Beq4YFcWJGL3TdpUzGVg&utm_campaign=yelp_api_v3&utm_medium=api_v3_business_search&utm_source=X5Beq4YFcWJGL3TdpUzGVg,zFjNxXeumMp5XM42GhcZYw,34.0643893,-118.2629536,parks,Parks,NA
"Yakuza Sushi",172,4.0,"1700 Silver Lake Blvd",,"Los Angeles",CA,90026,https://www.yelp.com/biz/yakuza-sushi-los-angeles-3?adjust_creative=X5Beq4YFcWJGL3TdpUzGVg&utm_campaign=yelp_api_v3&utm_medium=api_v3_business_search&utm_source=X5Beq4YFcWJGL3TdpUzGVg,yFEqBhIr_YtAibpyBzQKtw,34.0893594018348,-118.268309100123,sushi,"Sushi Bars",NA
Alimento,504,3.5,"1710 Silver Lake Blvd",,"Los Angeles",CA,90026,https://www.yelp.com/biz/alimento-los-angeles-2?adjust_creative=X5Beq4YFcWJGL3TdpUzGVg&utm_campaign=yelp_api_v3&utm_medium=api_v3_business_search&utm_source=X5Beq4YFcWJGL3TdpUzGVg,yy6HIDpS1lwxjY_VmFC-mQ,34.089478,-118.26812,italian,Italian,NA
"Pupuseria Y Panaderia Atecosol",13,4.0,"2523 West Temple St",,"Los Angeles",CA,90026,https://www.yelp.com/biz/pupuseria-y-panaderia-atecosol-los-angeles?adjust_creative=X5Beq4YFcWJGL3TdpUzGVg&utm_campaign=yelp_api_v3&utm_medium=api_v3_business_search&utm_source=X5Beq4YFcWJGL3TdpUzGVg,vC3JFKlueOKk6LBpTFNVDg,34.0726128026827,-118.274086900055,salvadoran,Salvadoran,NA
"L & E Oyster Bar",652,4.0,"1637 Silver Lake Blvd",,"Los Angeles",CA,90026,https://www.yelp.com/biz/l-and-e-oyster-bar-los-angeles?adjust_creative=X5Beq4YFcWJGL3TdpUzGVg&utm_campaign=yelp_api_v3&utm_medium=api_v3_business_search&utm_source=X5Beq4YFcWJGL3TdpUzGVg,Bzux14VeAPzlNTjc9dS7NQ,34.08902,-118.26905,seafood,Seafood,NA
"Flore Vegan Cuisine",1276,4.0,"2943 W Sunset Blvd",,"Los Angeles",CA,90026,https://www.yelp.com/biz/flore-vegan-cuisine-los-angeles-2?adjust_creative=X5Beq4YFcWJGL3TdpUzGVg&utm_campaign=yelp_api_v3&utm_medium=api_v3_business_search&utm_source=X5Beq4YFcWJGL3TdpUzGVg,t4W9SvZmYQhBM6jDEmeiKA,34.083808,-118.273853,vegan,Vegan,NA
7-Eleven,22,3.0,"1647 Silverlake Blvd",,"Los Angeles",CA,90026,https://www.yelp.com/biz/7-eleven-los-angeles-152?adjust_creative=X5Beq4YFcWJGL3TdpUzGVg&utm_campaign=yelp_api_v3&utm_medium=api_v3_business_search&utm_source=X5Beq4YFcWJGL3TdpUzGVg,NDulwLNtqgtQacbz2kaBqg,34.0892412234654,-118.269026017342,convenience,"Convenience Stores",NA
Maury's,248,4.5,"2829 Bellevue Ave",,"Los Angeles",CA,90026,https://www.yelp.com/biz/maurys-los-angeles?adjust_creative=X5Beq4YFcWJGL3TdpUzGVg&utm_campaign=yelp_api_v3&utm_medium=api_v3_business_search&utm_source=X5Beq4YFcWJGL3TdpUzGVg,G_9bJGizhgFzElrHSrOwXw,34.076918,-118.2757196,bagels,Bagels,NA
"Laurel and Hardy Park",5,4.0,"3016-3098 Del Monte Dr",,"Los Angeles",CA,90026,https://www.yelp.com/biz/laurel-and-hardy-park-los-angeles?adjust_creative=X5Beq4YFcWJGL3TdpUzGVg&utm_campaign=yelp_api_v3&utm_medium=api_v3_business_search&utm_source=X5Beq4YFcWJGL3TdpUzGVg,BCSKHnor_NEgg3e9eP0Iwg,34.082371,-118.27491,parks,Parks,NA
"El Amanecer Restaurant",1,5.0,"3040 W Sunset Blvd",,"Los Angeles",CA,90026,https://www.yelp.com/biz/el-amanecer-restaurant-los-angeles?adjust_creative=X5Beq4YFcWJGL3TdpUzGVg&utm_campaign=yelp_api_v3&utm_medium=api_v3_business_search&utm_source=X5Beq4YFcWJGL3TdpUzGVg,v0hTGf0zJiXCOFHLlmE3rg,34.0839653,-118.2743149,mexican,Mexican,NA
"HiFi Kitchen",78,4.5,"1667 Beverly Blvd",,"Los Angeles",CA,90026,https://www.yelp.com/biz/hifi-kitchen-los-angeles?adjust_creative=X5Beq4YFcWJGL3TdpUzGVg&utm_campaign=yelp_api_v3&utm_medium=api_v3_business_search&utm_source=X5Beq4YFcWJGL3TdpUzGVg,gY3McKZ54b8w_3yVU2qQPg,34.064462756061815,-118.2650062814355,filipino,Filipino,NA
"The Silver Lake House",376,4.5,"1737 Silver Lake Blvd","Ste 1","Los Angeles",CA,90026,https://www.yelp.com/biz/the-silver-lake-house-los-angeles?adjust_creative=X5Beq4YFcWJGL3TdpUzGVg&utm_campaign=yelp_api_v3&utm_medium=api_v3_business_search&utm_source=X5Beq4YFcWJGL3TdpUzGVg,TmDZlfdPWgvQvXrZZcDiGA,34.09026,-118.26783,thai,Thai,NA
"Tita Lina’s",2,5.0,"2532 W Temple St",,"Los Angeles",CA,90026,https://www.yelp.com/biz/tita-lina-s-los-angeles?adjust_creative=X5Beq4YFcWJGL3TdpUzGVg&utm_campaign=yelp_api_v3&utm_medium=api_v3_business_search&utm_source=X5Beq4YFcWJGL3TdpUzGVg,-dmFlY8oohLiep_sexSMSg,34.07223538659772,-118.274630116813,filipino,Filipino,NA
"La Velo Coffee",8,5.0,"1850 W Silver Lake Dr",,"Los Angeles",CA,90026,https://www.yelp.com/biz/la-velo-coffee-los-angeles?adjust_creative=X5Beq4YFcWJGL3TdpUzGVg&utm_campaign=yelp_api_v3&utm_medium=api_v3_business_search&utm_source=X5Beq4YFcWJGL3TdpUzGVg,HjTO0zzYEPAXBfRvjbVMXw,34.0919814601469,-118.26416445451,coffee,"Coffee & Tea",NA
"Little Ongpin-Beverly",54,3.5,"1700 Beverly Blvd",,"Los Angeles",CA,90026,https://www.yelp.com/biz/little-ongpin-beverly-los-angeles?adjust_creative=X5Beq4YFcWJGL3TdpUzGVg&utm_campaign=yelp_api_v3&utm_medium=api_v3_business_search&utm_source=X5Beq4YFcWJGL3TdpUzGVg,7x2QSD9ikaxHwLuH6oOMbw,34.0645701846348,-118.265780225227,filipino,Filipino,NA
"Music Box Steps",3,4.5,"923 N Vendome St",,"Los Angeles",CA,90026,https://www.yelp.com/biz/music-box-steps-los-angeles?adjust_creative=X5Beq4YFcWJGL3TdpUzGVg&utm_campaign=yelp_api_v3&utm_medium=api_v3_business_search&utm_source=X5Beq4YFcWJGL3TdpUzGVg,QJu5G7M2GltrmBqvE4tMhA,34.08303,-118.27522,landmarks,"Landmarks & Historical Buildings",NA
"Pizza Hut",69,2.0,"2542 W Temple St",,"Los Angeles",CA,90026,https://www.yelp.com/biz/pizza-hut-los-angeles-14?adjust_creative=X5Beq4YFcWJGL3TdpUzGVg&utm_campaign=yelp_api_v3&utm_medium=api_v3_business_search&utm_source=X5Beq4YFcWJGL3TdpUzGVg,qSBIJ4y7Gj5Tqfj84QVXdw,34.07213429204798,-118.27493950724596,pizza,Pizza,NA
"Silver Lake Dog Park",306,3.5,"1873 Silver Lake Blvd",,"Los Angeles",CA,90026,https://www.yelp.com/biz/silver-lake-dog-park-los-angeles?adjust_creative=X5Beq4YFcWJGL3TdpUzGVg&utm_campaign=yelp_api_v3&utm_medium=api_v3_business_search&utm_source=X5Beq4YFcWJGL3TdpUzGVg,nguOKQ2GC27YuKBbeLWeiA,34.09221667211654,-118.26427473498919,dog_parks,"Dog Parks",NA
MIXT,113,4.0,"3100 W Sunset Blvd",,"Los Angeles",CA,90026,https://www.yelp.com/biz/mixt-los-angeles-4?adjust_creative=X5Beq4YFcWJGL3TdpUzGVg&utm_campaign=yelp_api_v3&utm_medium=api_v3_business_search&utm_source=X5Beq4YFcWJGL3TdpUzGVg,ToWTEsyw1z1jpi1vaOIEew,34.084406,-118.27469,salad,Salad,NA
"Mata Hambre",2,5.0,"3100 Sunset Blvd",,"Los Angeles",CA,90026,https://www.yelp.com/biz/mata-hambre-los-angeles?adjust_creative=X5Beq4YFcWJGL3TdpUzGVg&utm_campaign=yelp_api_v3&utm_medium=api_v3_business_search&utm_source=X5Beq4YFcWJGL3TdpUzGVg,Hgs-tay6CHeTG040At6ceQ,34.08439,-118.27472,popuprestaurants,"Pop-Up Restaurants",NA
"Boba Guys",362,4.0,"1670 Beverly Blvd",,"Los Angeles",CA,90026,https://www.yelp.com/biz/boba-guys-los-angeles-3?adjust_creative=X5Beq4YFcWJGL3TdpUzGVg&utm_campaign=yelp_api_v3&utm_medium=api_v3_business_search&utm_source=X5Beq4YFcWJGL3TdpUzGVg,cB_6FKJC75VSXDUL5wc0gA,34.06408,-118.26535,bubbletea,"Bubble Tea",NA
Diablo,830,4.0,"3129 W Sunset Blvd",,"Los Angeles",CA,90026,https://www.yelp.com/biz/diablo-los-angeles-2?adjust_creative=X5Beq4YFcWJGL3TdpUzGVg&utm_campaign=yelp_api_v3&utm_medium=api_v3_business_search&utm_source=X5Beq4YFcWJGL3TdpUzGVg,_rNLDmwV1u_D2tiZLUFmYQ,34.0850744,-118.2745083,bars,Bars,NA
Sweetfin,148,3.5,"3112 Sunset Blvd",,"Los Angeles",CA,90026,https://www.yelp.com/biz/sweetfin-los-angeles-6?adjust_creative=X5Beq4YFcWJGL3TdpUzGVg&utm_campaign=yelp_api_v3&utm_medium=api_v3_business_search&utm_source=X5Beq4YFcWJGL3TdpUzGVg,IzR3T3mESJlnJIDTTpztZQ,34.0847477,-118.2747168,poke,Poke,NA
"Pupuseria Menchita",71,3.5,"1606 Beverly Blvd",,"Los Angeles",CA,90026,https://www.yelp.com/biz/pupuseria-menchita-los-angeles?adjust_creative=X5Beq4YFcWJGL3TdpUzGVg&utm_campaign=yelp_api_v3&utm_medium=api_v3_business_search&utm_source=X5Beq4YFcWJGL3TdpUzGVg,qRixgowAWx3_6nbHUnpFCA,34.06327,-118.26351,salvadoran,Salvadoran,NA
"Marengo Grill & Coffee House",3,2.5,"1606 Beverly Blvd",,"Los Angeles",CA,90026,https://www.yelp.com/biz/marengo-grill-and-coffee-house-los-angeles-2?adjust_creative=X5Beq4YFcWJGL3TdpUzGVg&utm_campaign=yelp_api_v3&utm_medium=api_v3_business_search&utm_source=X5Beq4YFcWJGL3TdpUzGVg,Pig1azcaAT3Jo601Jjp-kg,34.06327,-118.26351,coffee,"Coffee & Tea",NA
"Ube Baby",525,4.5,"3116 W Sunset Blvd","Ste 1/2","Los Angeles",CA,90026,https://www.yelp.com/biz/ube-baby-los-angeles?adjust_creative=X5Beq4YFcWJGL3TdpUzGVg&utm_campaign=yelp_api_v3&utm_medium=api_v3_business_search&utm_source=X5Beq4YFcWJGL3TdpUzGVg,ESDQZ5DiXAE9Cexq39tOpQ,34.084792,-118.274807,coffee,"Coffee & Tea",NA
"El Ruso",164,4.0,"3110 W Sunset Blvd",,"Los Angeles",CA,90026,https://www.yelp.com/biz/el-ruso-los-angeles-3?adjust_creative=X5Beq4YFcWJGL3TdpUzGVg&utm_campaign=yelp_api_v3&utm_medium=api_v3_business_search&utm_source=X5Beq4YFcWJGL3TdpUzGVg,6lL15v2PGXoAl2RBTdbDUw,34.084637828604876,-118.2749531,tacos,Tacos,NA
"Spoon & Pork",275,4.5,"3131 W Sunset Blvd",,"Los Angeles",CA,90026,https://www.yelp.com/biz/spoon-and-pork-los-angeles?adjust_creative=X5Beq4YFcWJGL3TdpUzGVg&utm_campaign=yelp_api_v3&utm_medium=api_v3_business_search&utm_source=X5Beq4YFcWJGL3TdpUzGVg,kornX_GAu5kTX5ALefTpFw,34.0853518,-118.2745658,filipino,Filipino,NA
"Playita Mariscos",66,4.5,"3143 Sunset Blvd",,"Los Angeles",CA,90026,https://www.yelp.com/biz/playita-mariscos-los-angeles-2?adjust_creative=X5Beq4YFcWJGL3TdpUzGVg&utm_campaign=yelp_api_v3&utm_medium=api_v3_business_search&utm_source=X5Beq4YFcWJGL3TdpUzGVg,ZL1KoWDnktCHz2E7PhyQfQ,34.085491,-118.274629,seafood,Seafood,NA
"Bao and Bowls",6,4.0,"1000 Vin Scully Ave",,"Los Angeles",CA,90026,https://www.yelp.com/biz/bao-and-bowls-los-angeles?adjust_creative=X5Beq4YFcWJGL3TdpUzGVg&utm_campaign=yelp_api_v3&utm_medium=api_v3_business_search&utm_source=X5Beq4YFcWJGL3TdpUzGVg,rlQiZ5XHvEres3f7M0L8bw,34.07385558465302,-118.23995545506479,asianfusion,"Asian Fusion",NA
"Day Trader at Bootleg Theater",8,4.0,"2220 Beverly Blvd",,"Los Angeles",CA,90026,https://www.yelp.com/biz/day-trader-at-bootleg-theater-los-angeles?adjust_creative=X5Beq4YFcWJGL3TdpUzGVg&utm_campaign=yelp_api_v3&utm_medium=api_v3_business_search&utm_source=X5Beq4YFcWJGL3TdpUzGVg,RNbRuMk29pIlZP8nG5E5YQ,34.0673515,-118.2721718,localflavor,"Local Flavor",NA
"All Day Baby",256,4.0,"3200 W Sunset Blvd",,"Los Angeles",CA,90026,https://www.yelp.com/biz/all-day-baby-los-angeles-4?adjust_creative=X5Beq4YFcWJGL3TdpUzGVg&utm_campaign=yelp_api_v3&utm_medium=api_v3_business_search&utm_source=X5Beq4YFcWJGL3TdpUzGVg,xPoZ1x-sGynBexrmRXyKlA,34.0854955008303,-118.275090262648,cocktailbars,"Cocktail Bars",NA
Dayglow,174,4.0,"3206 W Sunset Blvd",,"Los Angeles",CA,90026,https://www.yelp.com/biz/dayglow-los-angeles-2?adjust_creative=X5Beq4YFcWJGL3TdpUzGVg&utm_campaign=yelp_api_v3&utm_medium=api_v3_business_search&utm_source=X5Beq4YFcWJGL3TdpUzGVg,RdZDOv-XBVrIXvnJQ63LLQ,34.085563531674,-118.275099008793,coffee,"Coffee & Tea",NA
"Vista Hermosa Natural Park",364,4.5,"100 N Toluca St",,"Los Angeles",CA,90026,https://www.yelp.com/biz/vista-hermosa-natural-park-los-angeles?adjust_creative=X5Beq4YFcWJGL3TdpUzGVg&utm_campaign=yelp_api_v3&utm_medium=api_v3_business_search&utm_source=X5Beq4YFcWJGL3TdpUzGVg,COvceiqsN4SfZTeZHDlavQ,34.061581,-118.2584081,parks,Parks,NA
"Swan Stairway",1,4.0,"2958 Swan Pl",,"Los Angeles",CA,90026,https://www.yelp.com/biz/swan-stairway-los-angeles?adjust_creative=X5Beq4YFcWJGL3TdpUzGVg&utm_campaign=yelp_api_v3&utm_medium=api_v3_business_search&utm_source=X5Beq4YFcWJGL3TdpUzGVg,ph3aUTWQbiQvuKq7Etn9-g,34.0915089442894,-118.268909542851,landmarks,"Landmarks & Historical Buildings",NA
"Ancient Grounds",3,4.5,"3229 W Sunset Blvd",,"Los Angeles",CA,90026,https://www.yelp.com/biz/ancient-grounds-los-angeles?adjust_creative=X5Beq4YFcWJGL3TdpUzGVg&utm_campaign=yelp_api_v3&utm_medium=api_v3_business_search&utm_source=X5Beq4YFcWJGL3TdpUzGVg,zCGZExqtrFi0K0AuoU-xAg,34.0863647460938,-118.274925231934,coffee,"Coffee & Tea",NA
"Ali Mama Cafe",149,4.5,"3229 W Sunset Blvd",,"Los Angeles",CA,90026,https://www.yelp.com/biz/ali-mama-cafe-los-angeles?adjust_creative=X5Beq4YFcWJGL3TdpUzGVg&utm_campaign=yelp_api_v3&utm_medium=api_v3_business_search&utm_source=X5Beq4YFcWJGL3TdpUzGVg,umrIxr_NL2KHOv0SE_KniQ,34.086378,-118.275051,coffee,"Coffee & Tea",NA
"Los Molcajetes",268,3.5,"2748 W Temple St",,"Los Angeles",CA,90026,https://www.yelp.com/biz/los-molcajetes-los-angeles?adjust_creative=X5Beq4YFcWJGL3TdpUzGVg&utm_campaign=yelp_api_v3&utm_medium=api_v3_business_search&utm_source=X5Beq4YFcWJGL3TdpUzGVg,4mt3ec22ROhEJAxhRV9Nfw,34.07329,-118.27742,breakfast_brunch,"Breakfast & Brunch",NA
"Las Glorias Del Buen Comer",233,4.0,"620 Silver Lake Blvd",,"Los Angeles",CA,90026,https://www.yelp.com/biz/las-glorias-del-buen-comer-los-angeles?adjust_creative=X5Beq4YFcWJGL3TdpUzGVg&utm_campaign=yelp_api_v3&utm_medium=api_v3_business_search&utm_source=X5Beq4YFcWJGL3TdpUzGVg,Q_PILb8JeSm5CWh47DSTyw,34.07859,-118.27815,mexican,Mexican,NA
"Belmont Tacos",2,4.5,"Belmont And 1st St",,"Los Angeles",CA,90026,https://www.yelp.com/biz/belmont-tacos-los-angeles-2?adjust_creative=X5Beq4YFcWJGL3TdpUzGVg&utm_campaign=yelp_api_v3&utm_medium=api_v3_business_search&utm_source=X5Beq4YFcWJGL3TdpUzGVg,It16tSrchcAWb8DG3FlPbg,34.061029,-118.25927,mexican,Mexican,NA
"Muddy Paw Coffee Company",319,4.5,"3320 Sunset Blvd",,"Los Angeles",CA,90026,https://www.yelp.com/biz/muddy-paw-coffee-company-los-angeles-2?adjust_creative=X5Beq4YFcWJGL3TdpUzGVg&utm_campaign=yelp_api_v3&utm_medium=api_v3_business_search&utm_source=X5Beq4YFcWJGL3TdpUzGVg,jVnRWcDoEwtUl5Bj0gms9w,34.086881,-118.27573,coffee,"Coffee & Tea",NA
"Lark Cake Shop",894,4.0,"3337 W Sunset Blvd",,"Los Angeles",CA,90026,https://www.yelp.com/biz/lark-cake-shop-los-angeles?adjust_creative=X5Beq4YFcWJGL3TdpUzGVg&utm_campaign=yelp_api_v3&utm_medium=api_v3_business_search&utm_source=X5Beq4YFcWJGL3TdpUzGVg,0_K1MtVTLHueiTq7AwaHnA,34.08753,-118.27546,desserts,Desserts,NA
"Alfred Coffee Silverlake",298,3.5,"3337 1/2 W Sunset Blvd",,"Los Angeles",CA,90026,https://www.yelp.com/biz/alfred-coffee-silverlake-los-angeles?adjust_creative=X5Beq4YFcWJGL3TdpUzGVg&utm_campaign=yelp_api_v3&utm_medium=api_v3_business_search&utm_source=X5Beq4YFcWJGL3TdpUzGVg,06KzuIKBzaLwflT0SHq3Xw,34.0875624738865,-118.275644,coffee,"Coffee & Tea",NA
"Micheltorena Stairs",54,4.0,"3324 Sunset Blvd",,"Los Angeles",CA,90026,https://www.yelp.com/biz/micheltorena-stairs-los-angeles-2?adjust_creative=X5Beq4YFcWJGL3TdpUzGVg&utm_campaign=yelp_api_v3&utm_medium=api_v3_business_search&utm_source=X5Beq4YFcWJGL3TdpUzGVg,yzQWiBpNRMEAnzlWoYYiDQ,34.087125,-118.276113,hiking,Hiking,NA
"Mom's Donut and Chinese Food to Go",58,4.5,"601 Silver Lake Blvd",,"Los Angeles",CA,90026,https://www.yelp.com/biz/moms-donut-and-chinese-food-to-go-los-angeles?adjust_creative=X5Beq4YFcWJGL3TdpUzGVg&utm_campaign=yelp_api_v3&utm_medium=api_v3_business_search&utm_source=X5Beq4YFcWJGL3TdpUzGVg,DtBO95Xuyx4JtEwX_wVTQg,34.0785546,-118.2790659,chinese,Chinese,NA
"The Window",4,4.5,"1263 W 2nd St",,"Los Angeles",CA,90026,https://www.yelp.com/biz/the-window-los-angeles-2?adjust_creative=X5Beq4YFcWJGL3TdpUzGVg&utm_campaign=yelp_api_v3&utm_medium=api_v3_business_search&utm_source=X5Beq4YFcWJGL3TdpUzGVg,xn6lugKGG0j8fIqw9rteAA,34.06036248322526,-118.2577901088455,asianfusion,"Asian Fusion",NA
"Seoul Sausage Company",36,5.0,"1263 W 2nd St",,"Los Angeles",CA,90026,https://www.yelp.com/biz/seoul-sausage-company-los-angeles-3?adjust_creative=X5Beq4YFcWJGL3TdpUzGVg&utm_campaign=yelp_api_v3&utm_medium=api_v3_business_search&utm_source=X5Beq4YFcWJGL3TdpUzGVg,AL2EBhiZVDvrX6Q13z8NCw,34.060291335577396,-118.25776981260283,asianfusion,"Asian Fusion",NA
Woon,252,4.5,"2920 W Temple St",,"Los Angeles",CA,90026,https://www.yelp.com/biz/woon-los-angeles?adjust_creative=X5Beq4YFcWJGL3TdpUzGVg&utm_campaign=yelp_api_v3&utm_medium=api_v3_business_search&utm_source=X5Beq4YFcWJGL3TdpUzGVg,sgqhqcRGuioPSNCVKA-PZg,34.0741838,-118.2793993,chinese,Chinese,NA
"Ramen Tatsunoya",134,4.0,"3440 W Sunset Blvd","Ste A","Los Angeles",CA,90026,https://www.yelp.com/biz/ramen-tatsunoya-los-angeles-2?adjust_creative=X5Beq4YFcWJGL3TdpUzGVg&utm_campaign=yelp_api_v3&utm_medium=api_v3_business_search&utm_source=X5Beq4YFcWJGL3TdpUzGVg,NNayFhITG-6Lfbc4pCLr0A,34.088251,-118.2764613,ramen,Ramen,NA
"Blue Star Donuts",147,4.0,"3438 Sunset Blvd",,"Los Angeles",CA,90026,https://www.yelp.com/biz/blue-star-donuts-los-angeles-4?adjust_creative=X5Beq4YFcWJGL3TdpUzGVg&utm_campaign=yelp_api_v3&utm_medium=api_v3_business_search&utm_source=X5Beq4YFcWJGL3TdpUzGVg,9THKpieMEuU1vojBQm3O0Q,34.08833,-118.27642,donuts,Donuts,NA
"Yakiniku Osen",130,4.0,"3503 Sunset Blvd",,"Los Angeles",CA,90026,https://www.yelp.com/biz/yakiniku-osen-los-angeles-7?adjust_creative=X5Beq4YFcWJGL3TdpUzGVg&utm_campaign=yelp_api_v3&utm_medium=api_v3_business_search&utm_source=X5Beq4YFcWJGL3TdpUzGVg,mV1Zi2frMuVrwE_dTCloMA,34.08909,-118.27633,japanese,Japanese,NA
"Fat Dragon",241,3.5,"3500 W Sunset Blvd",,"Los Angeles",CA,90026,https://www.yelp.com/biz/fat-dragon-los-angeles?adjust_creative=X5Beq4YFcWJGL3TdpUzGVg&utm_campaign=yelp_api_v3&utm_medium=api_v3_business_search&utm_source=X5Beq4YFcWJGL3TdpUzGVg,JFc9t0vL5n2bMLvTwcWGOQ,34.08879,-118.27684,chinese,Chinese,NA
"Domino's Pizza",52,2.5,"3502 W Sunset Blvd",,"Los Angeles",CA,90026,https://www.yelp.com/biz/dominos-pizza-los-angeles-39?adjust_creative=X5Beq4YFcWJGL3TdpUzGVg&utm_campaign=yelp_api_v3&utm_medium=api_v3_business_search&utm_source=X5Beq4YFcWJGL3TdpUzGVg,_itK_6yZqDt0W1TDue-H0A,34.08854,-118.2764983,pizza,Pizza,NA
"Backyard Bowls - Silverlake",19,4.5,"3504 Sunset Blvd",,"Los Angeles",CA,90026,https://www.yelp.com/biz/backyard-bowls-silverlake-los-angeles?adjust_creative=X5Beq4YFcWJGL3TdpUzGVg&utm_campaign=yelp_api_v3&utm_medium=api_v3_business_search&utm_source=X5Beq4YFcWJGL3TdpUzGVg,rewYmHzevHqyIeSjjKq2dA,34.08855,-118.27677,acaibowls,"Acai Bowls",NA
"El Cochinito Restaurant",837,4.0,"3508 W Sunset Blvd",,"Los Angeles",CA,90026,https://www.yelp.com/biz/el-cochinito-restaurant-los-angeles?adjust_creative=X5Beq4YFcWJGL3TdpUzGVg&utm_campaign=yelp_api_v3&utm_medium=api_v3_business_search&utm_source=X5Beq4YFcWJGL3TdpUzGVg,7s6lIJrg0EMfHYG6tYTMqg,34.0887571355407,-118.276930530164,cuban,Cuban,NA
"The Vtree",9,4.5,"3515 Sunset Blvd",,"Los Angeles",CA,90026,https://www.yelp.com/biz/the-vtree-los-angeles?adjust_creative=X5Beq4YFcWJGL3TdpUzGVg&utm_campaign=yelp_api_v3&utm_medium=api_v3_business_search&utm_source=X5Beq4YFcWJGL3TdpUzGVg,BsYKoRSeH3gw5Nq5vUb6fA,34.08926,-118.27643,vegan,Vegan,NA
Eszett,85,4.5,"3510 Sunset Blvd",,"Los Angeles",CA,90026,https://www.yelp.com/biz/eszett-los-angeles?adjust_creative=X5Beq4YFcWJGL3TdpUzGVg&utm_campaign=yelp_api_v3&utm_medium=api_v3_business_search&utm_source=X5Beq4YFcWJGL3TdpUzGVg,d3XUaeoSV8kIRKDPMibyiA,34.088908,-118.276942,wine_bars,"Wine Bars",NA
Baskin-Robbins,32,3.5,"3516 W Sunset Blvd",,"Los Angeles",CA,90026,https://www.yelp.com/biz/baskin-robbins-los-angeles-36?adjust_creative=X5Beq4YFcWJGL3TdpUzGVg&utm_campaign=yelp_api_v3&utm_medium=api_v3_business_search&utm_source=X5Beq4YFcWJGL3TdpUzGVg,73Og4Ib2JtGtPVDxa-9-cw,34.0888091,-118.2766178,icecream,"Ice Cream & Frozen Yogurt",NA
TheVTree,3,5.0,"3512 Sunset Blvd",,"Los Angeles",CA,90026,https://www.yelp.com/biz/thevtree-los-angeles?adjust_creative=X5Beq4YFcWJGL3TdpUzGVg&utm_campaign=yelp_api_v3&utm_medium=api_v3_business_search&utm_source=X5Beq4YFcWJGL3TdpUzGVg,J81vf-trZiyjbJA5HBrkIA,34.088929,-118.276954,soulfood,"Soul Food",NA
"Millie's Cafe",1163,4.0,"3524 W Sunset Blvd",,"Los Angeles",CA,90026,https://www.yelp.com/biz/millies-cafe-los-angeles?adjust_creative=X5Beq4YFcWJGL3TdpUzGVg&utm_campaign=yelp_api_v3&utm_medium=api_v3_business_search&utm_source=X5Beq4YFcWJGL3TdpUzGVg,v_QZxQO1BCKzN-8Rnc_u_w,34.089237,-118.276946,diners,Diners,NA
"Creamo Silverlake",65,4.5,"3534 Sunset Blvd",,"Los Angeles",CA,90026,https://www.yelp.com/biz/creamo-silverlake-los-angeles-5?adjust_creative=X5Beq4YFcWJGL3TdpUzGVg&utm_campaign=yelp_api_v3&utm_medium=api_v3_business_search&utm_source=X5Beq4YFcWJGL3TdpUzGVg,S5O8oZX29WF68DrfWaNNUA,34.089374,-118.276994,donuts,Donuts,NA
"Silver Lake Reservoir",233,4.5,"1854 To 2246 Silver Lake Blvd",,"Los Angeles",CA,90026,https://www.yelp.com/biz/silver-lake-reservoir-los-angeles?adjust_creative=X5Beq4YFcWJGL3TdpUzGVg&utm_campaign=yelp_api_v3&utm_medium=api_v3_business_search&utm_source=X5Beq4YFcWJGL3TdpUzGVg,nNbG7-M-GiDC1JlcBB1Ivg,34.0969131454455,-118.26128907731,hiking,Hiking,NA
"Kayamanan Ng Lahi Philippine Folk Arts",1,5.0,"3200 Temple St",,"Los Angeles",CA,90026,https://www.yelp.com/biz/kayamanan-ng-lahi-philippine-folk-arts-los-angeles?adjust_creative=X5Beq4YFcWJGL3TdpUzGVg&utm_campaign=yelp_api_v3&utm_medium=api_v3_business_search&utm_source=X5Beq4YFcWJGL3TdpUzGVg,NC34ocybVCpfwW7Z-IVOVw,34.0753021240234,-118.28173828125,theater,"Performing Arts",2
"United Bread & Pastry",154,4.0,"1515 Griffith Park Blvd",,"Los Angeles",CA,90026,https://www.yelp.com/biz/united-bread-and-pastry-los-angeles?adjust_creative=X5Beq4YFcWJGL3TdpUzGVg&utm_campaign=yelp_api_v3&utm_medium=api_v3_business_search&utm_source=X5Beq4YFcWJGL3TdpUzGVg,eEpvCtDpzg__Ceeqk_qYqQ,34.09045,-118.27699,bakeries,Bakeries,2
"Bomb Foods",2,5.0,"Silverlake Farmer's Market",,"Los Angeles",CA,90026,https://www.yelp.com/biz/bomb-foods-los-angeles?adjust_creative=X5Beq4YFcWJGL3TdpUzGVg&utm_campaign=yelp_api_v3&utm_medium=api_v3_business_search&utm_source=X5Beq4YFcWJGL3TdpUzGVg,OLQZLBrCwS5bPYfjHOCalA,34.0903484038359,-118.277281935222,newamerican,"American (New)",2
"Alonso Tacos ",3,5.0,"287 S Bixel St",,"Los Angeles",CA,90026,https://www.yelp.com/biz/alonso-tacos-los-angeles?adjust_creative=X5Beq4YFcWJGL3TdpUzGVg&utm_campaign=yelp_api_v3&utm_medium=api_v3_business_search&utm_source=X5Beq4YFcWJGL3TdpUzGVg,3JGRQxhsQ6ZxZPpMBZsQkg,34.0579155,-118.2598456,foodstands,"Food Stands",2
"Pine & Crane",2546,4.5,"1521 Griffith Park Blvd",,"Los Angeles",CA,90026,https://www.yelp.com/biz/pine-and-crane-los-angeles?adjust_creative=X5Beq4YFcWJGL3TdpUzGVg&utm_campaign=yelp_api_v3&utm_medium=api_v3_business_search&utm_source=X5Beq4YFcWJGL3TdpUzGVg,ohosmz6FXVAeoW5nUkYwng,34.0905963760163,-118.277172084005,taiwanese,Taiwanese,2
"Coffee Memes",35,4.5,"1523 Griffith Park Blvd",,"Los Angeles",CA,90026,https://www.yelp.com/biz/coffee-memes-los-angeles?adjust_creative=X5Beq4YFcWJGL3TdpUzGVg&utm_campaign=yelp_api_v3&utm_medium=api_v3_business_search&utm_source=X5Beq4YFcWJGL3TdpUzGVg,LvxCHNqehla4vMbPIocpCA,34.09067,-118.27718,coffee,"Coffee & Tea",2
"Bacari Silverlake",736,4.5,"3626 Sunset Blvd",,"Los Angeles",CA,90026,https://www.yelp.com/biz/bacari-silverlake-los-angeles?adjust_creative=X5Beq4YFcWJGL3TdpUzGVg&utm_campaign=yelp_api_v3&utm_medium=api_v3_business_search&utm_source=X5Beq4YFcWJGL3TdpUzGVg,sXdOBghhw-ZU9S-1HxVZVA,34.09031981540568,-118.2775804,mediterranean,Mediterranean,2
"The Paramour Estate",4,5.0,"1923 Micheltorena St",,"Los Angeles",CA,90026,https://www.yelp.com/biz/the-paramour-estate-los-angeles?adjust_creative=X5Beq4YFcWJGL3TdpUzGVg&utm_campaign=yelp_api_v3&utm_medium=api_v3_business_search&utm_source=X5Beq4YFcWJGL3TdpUzGVg,SfMuX7Mbqjm_q5qJcwXLxA,34.094790621181,-118.271996363912,landmarks,"Landmarks & Historical Buildings",2
Breadblok,16,4.0,"1529 Griffith Park Blvd",,"Los Angeles",CA,90026,https://www.yelp.com/biz/breadblok-los-angeles?adjust_creative=X5Beq4YFcWJGL3TdpUzGVg&utm_campaign=yelp_api_v3&utm_medium=api_v3_business_search&utm_source=X5Beq4YFcWJGL3TdpUzGVg,3VxPRkg5tED8k1vFASHtTA,34.09087,-118.27726,breakfast_brunch,"Breakfast & Brunch",2
"The WinDow Silver Lake",62,4.5,"1529 Griffith Park Blvd",,"Los Angeles",CA,90026,https://www.yelp.com/biz/the-window-silver-lake-los-angeles-2?adjust_creative=X5Beq4YFcWJGL3TdpUzGVg&utm_campaign=yelp_api_v3&utm_medium=api_v3_business_search&utm_source=X5Beq4YFcWJGL3TdpUzGVg,kETtG3teylZTYOec5HsNDA,34.09087,-118.27726,burgers,Burgers,2
"El Condor",379,3.5,"3701 Sunset Blvd",,"Los Angeles",CA,90026,https://www.yelp.com/biz/el-condor-los-angeles?adjust_creative=X5Beq4YFcWJGL3TdpUzGVg&utm_campaign=yelp_api_v3&utm_medium=api_v3_business_search&utm_source=X5Beq4YFcWJGL3TdpUzGVg,fl6RC6MMp-b4QZoGuAzdhA,34.0906362156233,-118.27773001045,mexican,Mexican,2
"Bellevue Recreation Center",32,4.0,"826 Lucile Ave",,"Los Angeles",CA,90026,https://www.yelp.com/biz/bellevue-recreation-center-los-angeles?adjust_creative=X5Beq4YFcWJGL3TdpUzGVg&utm_campaign=yelp_api_v3&utm_medium=api_v3_business_search&utm_source=X5Beq4YFcWJGL3TdpUzGVg,rntqYuZM76exHjuMuhAc2g,34.0840737,-118.283265,parks,Parks,2
Kushi,1,4.0,"1200-1274 Miramar St",,"Los Angeles",CA,90026,https://www.yelp.com/biz/kushi-los-angeles?adjust_creative=X5Beq4YFcWJGL3TdpUzGVg&utm_campaign=yelp_api_v3&utm_medium=api_v3_business_search&utm_source=X5Beq4YFcWJGL3TdpUzGVg,BfPD7SD-QwziQIPEdswT6w,34.0571784973145,-118.257598876953,japanese,Japanese,2
"Sunset Triangle Plaza",8,4.0,"Griffith Park Blvd",,"Los Angeles",CA,90026,https://www.yelp.com/biz/sunset-triangle-plaza-los-angeles?adjust_creative=X5Beq4YFcWJGL3TdpUzGVg&utm_campaign=yelp_api_v3&utm_medium=api_v3_business_search&utm_source=X5Beq4YFcWJGL3TdpUzGVg,ZH8m1hImPWdDJNyExmSNRA,34.0913359148673,-118.277435302734,parks,Parks,2
"Kombu Sushi & Sake",528,4.0,"3719 Sunset Blvd",,"Los Angeles",CA,90026,https://www.yelp.com/biz/kombu-sushi-and-sake-los-angeles?adjust_creative=X5Beq4YFcWJGL3TdpUzGVg&utm_campaign=yelp_api_v3&utm_medium=api_v3_business_search&utm_source=X5Beq4YFcWJGL3TdpUzGVg,kzsFMwDxA5U2M3C3QtGaNA,34.09094,-118.27802,japanese,Japanese,2
"33 Taps",493,4.0,"3725 W Sunset Blvd",,"Los Angeles",CA,90026,https://www.yelp.com/biz/33-taps-los-angeles-5?adjust_creative=X5Beq4YFcWJGL3TdpUzGVg&utm_campaign=yelp_api_v3&utm_medium=api_v3_business_search&utm_source=X5Beq4YFcWJGL3TdpUzGVg,HN11c9eMQZs6rcYhDrRW4w,34.0908543,-118.2783261,sportsbars,"Sports Bars",2
"Tacos Delta",638,4.0,"3806 W Sunset Blvd",,"Los Angeles",CA,90026,https://www.yelp.com/biz/tacos-delta-los-angeles?adjust_creative=X5Beq4YFcWJGL3TdpUzGVg&utm_campaign=yelp_api_v3&utm_medium=api_v3_business_search&utm_source=X5Beq4YFcWJGL3TdpUzGVg,j63ipopHrhHHnoy9Ac5m0g,34.0908699035645,-118.27921295166,mexican,Mexican,2
Forage,804,4.0,"3823 W Sunset Blvd",,"Los Angeles",CA,90026,https://www.yelp.com/biz/forage-los-angeles?adjust_creative=X5Beq4YFcWJGL3TdpUzGVg&utm_campaign=yelp_api_v3&utm_medium=api_v3_business_search&utm_source=X5Beq4YFcWJGL3TdpUzGVg,3e9GNOPdQH6SRxSPkw2FTQ,34.0914091,-118.2792034,newamerican,"American (New)",NA
"pudu pudu",11,4.0,"3820 W Sunset Blvd",,"Los Angeles",CA,90026,https://www.yelp.com/biz/pudu-pudu-los-angeles-3?adjust_creative=X5Beq4YFcWJGL3TdpUzGVg&utm_campaign=yelp_api_v3&utm_medium=api_v3_business_search&utm_source=X5Beq4YFcWJGL3TdpUzGVg,ZPLdE7VubsDh6OMMp_9DqQ,34.0911816,-118.2794842132761,desserts,Desserts,NA
"Juice Crafters",30,4.0,"3827 W Sunset Blvd","Ste E","Los Angeles",CA,90026,https://www.yelp.com/biz/juice-crafters-los-angeles-18?adjust_creative=X5Beq4YFcWJGL3TdpUzGVg&utm_campaign=yelp_api_v3&utm_medium=api_v3_business_search&utm_source=X5Beq4YFcWJGL3TdpUzGVg,bgFDeHodns7eWHgmyZckRw,34.0916782,-118.279294,juicebars,"Juice Bars & Smoothies",NA
Needle,66,4.5,"3827 W Sunset Blvd","Ste C","Los Angeles",CA,90026,https://www.yelp.com/biz/needle-los-angeles-2?adjust_creative=X5Beq4YFcWJGL3TdpUzGVg&utm_campaign=yelp_api_v3&utm_medium=api_v3_business_search&utm_source=X5Beq4YFcWJGL3TdpUzGVg,-bKSg3-kXFSFUA7baQndMw,34.0917495,-118.2793485,chinese,Chinese,NA
"Pazzo Gelato",930,4.5,"3827 W Sunset Blvd",,"Los Angeles",CA,90026,https://www.yelp.com/biz/pazzo-gelato-los-angeles?adjust_creative=X5Beq4YFcWJGL3TdpUzGVg&utm_campaign=yelp_api_v3&utm_medium=api_v3_business_search&utm_source=X5Beq4YFcWJGL3TdpUzGVg,ZLhWj4S_v6JeWVWdEqg6mA,34.0916898,-118.279471,icecream,"Ice Cream & Frozen Yogurt",NA
