name,review_count,rating,address1,address2,city,state,zip_code,url,id,latitude,longitude,alias,title,price
"ABC Chinese Fast Food",57,4.0,"100 W 7th St",,"Los Angeles",CA,90014,https://www.yelp.com/biz/abc-chinese-fast-food-los-angeles?adjust_creative=X5Beq4YFcWJGL3TdpUzGVg&utm_campaign=yelp_api_v3&utm_medium=api_v3_business_search&utm_source=X5Beq4YFcWJGL3TdpUzGVg,yvC0Fa-byDqXErrs4YXVwQ,34.0439339800124,-118.251624857707,chinese,Chinese,2
"Braazo Pizza",746,4.5,"100 1/2 W 7th St",,"Los Angeles",CA,90014,https://www.yelp.com/biz/braazo-pizza-los-angeles?adjust_creative=X5Beq4YFcWJGL3TdpUzGVg&utm_campaign=yelp_api_v3&utm_medium=api_v3_business_search&utm_source=X5Beq4YFcWJGL3TdpUzGVg,T1RfgUMYKW3HD55SEJILbQ,34.0438886,-118.251571,pizza,Pizza,2
"Alebrijes Mexican Grill",8,4.0,"102 W 7th St","Ste 0","Los Angeles",CA,90014,https://www.yelp.com/biz/alebrijes-mexican-grill-los-angeles-2?adjust_creative=X5Beq4YFcWJGL3TdpUzGVg&utm_campaign=yelp_api_v3&utm_medium=api_v3_business_search&utm_source=X5Beq4YFcWJGL3TdpUzGVg,ds7b-5HWYXHejkg8r4GKcg,34.04403567559151,-118.25177670467863,mexican,Mexican,2
Bakexio,1,5.0,,,"Los Angeles",CA,90014,https://www.yelp.com/biz/bakexio-los-angeles-2?adjust_creative=X5Beq4YFcWJGL3TdpUzGVg&utm_campaign=yelp_api_v3&utm_medium=api_v3_business_search&utm_source=X5Beq4YFcWJGL3TdpUzGVg,O_Kg6cAs55BCGX6lqaDciA,34.0450782775879,-118.253517150879,cupcakes,Cupcakes,2
"Bean's Pop-Up Cuisine",3,5.0,,,"Los Angeles",CA,90014,https://www.yelp.com/biz/beans-pop-up-cuisine-los-angeles?adjust_creative=X5Beq4YFcWJGL3TdpUzGVg&utm_campaign=yelp_api_v3&utm_medium=api_v3_business_search&utm_source=X5Beq4YFcWJGL3TdpUzGVg,NbOnItlWPOOVbacuCbj_aA,34.0426712036133,-118.250885009766,newamerican,"American (New)",2
"MrBeast Burger",2,2.0,,,"Los Angeles",CA,90014,https://www.yelp.com/biz/mrbeast-burger-los-angeles-4?adjust_creative=X5Beq4YFcWJGL3TdpUzGVg&utm_campaign=yelp_api_v3&utm_medium=api_v3_business_search&utm_source=X5Beq4YFcWJGL3TdpUzGVg,CWflwBPUr4HtWc2g5z2hvA,34.04507827758789,-118.2535171508789,fooddeliveryservices,"Food Delivery Services",2
"Mary's Hot Dog Cart",7,4.5,,,"Los Angeles",CA,90014,https://www.yelp.com/biz/marys-hot-dog-cart-los-angeles?adjust_creative=X5Beq4YFcWJGL3TdpUzGVg&utm_campaign=yelp_api_v3&utm_medium=api_v3_business_search&utm_source=X5Beq4YFcWJGL3TdpUzGVg,vF9OYEe1ntN0GUJc29WGbA,34.04507827758789,-118.2535171508789,foodstands,"Food Stands",2
"Links By Magdaleno",1,5.0,,,"Los Angeles",CA,90014,https://www.yelp.com/biz/links-by-magdaleno-los-angeles?adjust_creative=X5Beq4YFcWJGL3TdpUzGVg&utm_campaign=yelp_api_v3&utm_medium=api_v3_business_search&utm_source=X5Beq4YFcWJGL3TdpUzGVg,8xpMyOFAIgh4Vz90C58iwQ,34.0431480407715,-118.252265930176,hotdog,"Hot Dogs",2
"Ridges Churro Bar",215,4.0,,,"Los Angeles",CA,90014,https://www.yelp.com/biz/ridges-churro-bar-los-angeles?adjust_creative=X5Beq4YFcWJGL3TdpUzGVg&utm_campaign=yelp_api_v3&utm_medium=api_v3_business_search&utm_source=X5Beq4YFcWJGL3TdpUzGVg,kHYPbhvo6AyMwE35cbl5XA,34.0434989929199,-118.250205993652,foodtrucks,"Food Trucks",2
"Wild Living Foods",617,4.0,"760 S Main St",,"Los Angeles",CA,90014,https://www.yelp.com/biz/wild-living-foods-los-angeles?adjust_creative=X5Beq4YFcWJGL3TdpUzGVg&utm_campaign=yelp_api_v3&utm_medium=api_v3_business_search&utm_source=X5Beq4YFcWJGL3TdpUzGVg,cGaz4-wz0jhAB_Qr5byusg,34.0430896729231,-118.252573236823,juicebars,"Juice Bars & Smoothies",2
"Margarita's Place",84,3.5,"103 E 7th St",,"Los Angeles",CA,90014,https://www.yelp.com/biz/margaritas-place-los-angeles?adjust_creative=X5Beq4YFcWJGL3TdpUzGVg&utm_campaign=yelp_api_v3&utm_medium=api_v3_business_search&utm_source=X5Beq4YFcWJGL3TdpUzGVg,6lSy_Gw5EsSswQK5ZYhhHQ,34.0439053,-118.2511007,tacos,Tacos,2
"Happy Burrito",10,3.5,"654 S Main St",,"Los Angeles",CA,90014,https://www.yelp.com/biz/happy-burrito-los-angeles?adjust_creative=X5Beq4YFcWJGL3TdpUzGVg&utm_campaign=yelp_api_v3&utm_medium=api_v3_business_search&utm_source=X5Beq4YFcWJGL3TdpUzGVg,-Ew9bbKWzrY7twDZE2C_QQ,34.04402,-118.25099,mexican,Mexican,2
"Albert's Petite Sweets",52,5.0,"111 W 7th Street","Ste 301","Los Angeles",CA,90014,https://www.yelp.com/biz/alberts-petite-sweets-los-angeles-3?adjust_creative=X5Beq4YFcWJGL3TdpUzGVg&utm_campaign=yelp_api_v3&utm_medium=api_v3_business_search&utm_source=X5Beq4YFcWJGL3TdpUzGVg,FsRp8o37tHoMeoJKkuFiaQ,34.04428,-118.25156,desserts,Desserts,2
"Papa D's",2,5.0,"111 W 7th St Los",,"Los Angeles",CA,90014,https://www.yelp.com/biz/papa-ds-los-angeles?adjust_creative=X5Beq4YFcWJGL3TdpUzGVg&utm_campaign=yelp_api_v3&utm_medium=api_v3_business_search&utm_source=X5Beq4YFcWJGL3TdpUzGVg,KfsQSW66TWxMUD4MCrvQng,34.0444908,-118.2512589,lounges,Lounges,2
"La Petite",11,3.5,"704 S Spring St",,"Los Angeles",CA,90014,https://www.yelp.com/biz/la-petite-los-angeles-2?adjust_creative=X5Beq4YFcWJGL3TdpUzGVg&utm_campaign=yelp_api_v3&utm_medium=api_v3_business_search&utm_source=X5Beq4YFcWJGL3TdpUzGVg,mdhhRhurhRAkMuyQkbC1GA,34.0441932678223,-118.252159118652,restaurants,Restaurants,2
"Ninfa & Rose",1,5.0,,,"Los Angeles",CA,90014,https://www.yelp.com/biz/ninfa-and-rose-los-angeles?adjust_creative=X5Beq4YFcWJGL3TdpUzGVg&utm_campaign=yelp_api_v3&utm_medium=api_v3_business_search&utm_source=X5Beq4YFcWJGL3TdpUzGVg,Skf7m5lsaEyjHyZmfPNhSA,34.04308290341196,-118.25169416819534,florists,Florists,2
"Lucky Bakery",1,3.0,"136 W 7th St",,"Los Angeles",CA,90014,https://www.yelp.com/biz/lucky-bakery-los-angeles?adjust_creative=X5Beq4YFcWJGL3TdpUzGVg&utm_campaign=yelp_api_v3&utm_medium=api_v3_business_search&utm_source=X5Beq4YFcWJGL3TdpUzGVg,Dhb4ikYGbzFtnfic8fQDKQ,34.044297337532,-118.252045512199,bakeries,Bakeries,2
"Panaderia Guerrero",1,3.0,"320 W 8th St",,"Los Angeles",CA,90014,https://www.yelp.com/biz/panaderia-guerrero-los-angeles-2?adjust_creative=X5Beq4YFcWJGL3TdpUzGVg&utm_campaign=yelp_api_v3&utm_medium=api_v3_business_search&utm_source=X5Beq4YFcWJGL3TdpUzGVg,J-Li6iRCPV9pw4vX9UGsAQ,34.043238,-118.250918,bakeries,Bakeries,2
"Little Damage",1427,3.5,"700 S Spring St",,"Los Angeles",CA,90014,https://www.yelp.com/biz/little-damage-los-angeles?adjust_creative=X5Beq4YFcWJGL3TdpUzGVg&utm_campaign=yelp_api_v3&utm_medium=api_v3_business_search&utm_source=X5Beq4YFcWJGL3TdpUzGVg,e8oqUt2PJ48xt54xKV-w1w,34.04419,-118.25215,icecream,"Ice Cream & Frozen Yogurt",2
BurgerShop,127,4.5,"724 S Spring St",,"Los Angeles",CA,90014,https://www.yelp.com/biz/burgershop-los-angeles-2?adjust_creative=X5Beq4YFcWJGL3TdpUzGVg&utm_campaign=yelp_api_v3&utm_medium=api_v3_business_search&utm_source=X5Beq4YFcWJGL3TdpUzGVg,Nm1iV8Aaat4EF_0hPevXhg,34.04384,-118.25268,burgers,Burgers,2
Salatia,2,5.0,"724 S Spring St",,"Los Angeles",CA,90014,https://www.yelp.com/biz/salatia-los-angeles?adjust_creative=X5Beq4YFcWJGL3TdpUzGVg&utm_campaign=yelp_api_v3&utm_medium=api_v3_business_search&utm_source=X5Beq4YFcWJGL3TdpUzGVg,wsZk88CQ6GhQ7gWmLmPzgg,34.04384,-118.25268,salad,Salad,2
"Civilization Coffee + Kitchen",55,4.0,"724 S Spring St",,"Los Angeles",CA,90014,https://www.yelp.com/biz/civilization-coffee-kitchen-los-angeles-2?adjust_creative=X5Beq4YFcWJGL3TdpUzGVg&utm_campaign=yelp_api_v3&utm_medium=api_v3_business_search&utm_source=X5Beq4YFcWJGL3TdpUzGVg,isipIPGiWBt8CCexkPa4sQ,34.04365,-118.25266,sandwiches,Sandwiches,2
"Corporation Food Hall",67,4.0,"724 S Spring St",,"Los Angeles",CA,90014,https://www.yelp.com/biz/corporation-food-hall-los-angeles-3?adjust_creative=X5Beq4YFcWJGL3TdpUzGVg&utm_campaign=yelp_api_v3&utm_medium=api_v3_business_search&utm_source=X5Beq4YFcWJGL3TdpUzGVg,6AxzXdxHnEv-Pr6JZkHnmA,34.0438200280931,-118.252910894549,food_court,"Food Court",2
"Island To Table Patty Hut",53,4.0,"724 S Spring St","Ste 105","Los angeles",CA,90014,https://www.yelp.com/biz/island-to-table-patty-hut-los-angeles?adjust_creative=X5Beq4YFcWJGL3TdpUzGVg&utm_campaign=yelp_api_v3&utm_medium=api_v3_business_search&utm_source=X5Beq4YFcWJGL3TdpUzGVg,AVZbTyOV0_0P0cDZWHzPZw,34.0438135,-118.2525938,caribbean,Caribbean,2
"surfer grill",7,4.0,"724 S Spring St",,"Los Angeles",CA,90014,https://www.yelp.com/biz/surfer-grill-los-angeles?adjust_creative=X5Beq4YFcWJGL3TdpUzGVg&utm_campaign=yelp_api_v3&utm_medium=api_v3_business_search&utm_source=X5Beq4YFcWJGL3TdpUzGVg,xQKnzPrqZl0W-y0dB6Y65A,34.04384,-118.25268,mexican,Mexican,2
"Tea Maru - Housemade Boba",90,3.5,"724 S Spring St",,"Los Angeles",CA,90014,https://www.yelp.com/biz/tea-maru-housemade-boba-los-angeles-2?adjust_creative=X5Beq4YFcWJGL3TdpUzGVg&utm_campaign=yelp_api_v3&utm_medium=api_v3_business_search&utm_source=X5Beq4YFcWJGL3TdpUzGVg,XpxN-OYmdy2xgQQoKnQ2gg,34.04384,-118.25268,bubbletea,"Bubble Tea",2
"Plant-it Burger",20,4.5,"724 S Spring St",,"Los Angeles",CA,90014,https://www.yelp.com/biz/plant-it-burger-los-angeles?adjust_creative=X5Beq4YFcWJGL3TdpUzGVg&utm_campaign=yelp_api_v3&utm_medium=api_v3_business_search&utm_source=X5Beq4YFcWJGL3TdpUzGVg,923hiOm0awwaqo92-a-X8Q,34.043771,-118.252636,burgers,Burgers,2
"The Fountain",8,4.5,"724 S Spring St",,"Los Angeles",CA,90014,https://www.yelp.com/biz/the-fountain-los-angeles?adjust_creative=X5Beq4YFcWJGL3TdpUzGVg&utm_campaign=yelp_api_v3&utm_medium=api_v3_business_search&utm_source=X5Beq4YFcWJGL3TdpUzGVg,Rnqn2PLx7DsVtDun1d1ojw,34.04365,-118.25266,cocktailbars,"Cocktail Bars",2
"Forty’s Bakery and Restaurant ",2,5.0,"119 E 7th St",,"Los Angeles",CA,90014,https://www.yelp.com/biz/forty-s-bakery-and-restaurant-los-angeles-3?adjust_creative=X5Beq4YFcWJGL3TdpUzGVg&utm_campaign=yelp_api_v3&utm_medium=api_v3_business_search&utm_source=X5Beq4YFcWJGL3TdpUzGVg,bvIkstDpZN1Y10ccvdWoKQ,34.043631,-118.250588,mexican,Mexican,2
Funculo,291,4.5,"724 S Spring St",,"Los Angeles",CA,90014,https://www.yelp.com/biz/funculo-los-angeles-2?adjust_creative=X5Beq4YFcWJGL3TdpUzGVg&utm_campaign=yelp_api_v3&utm_medium=api_v3_business_search&utm_source=X5Beq4YFcWJGL3TdpUzGVg,wBl2kT_V44-Y7frfdtOusg,34.043793,-118.252639,italian,Italian,2
"DTLA Bodega",55,4.5,"650 S Spring St","Unit R2","Los Angeles",CA,90014,https://www.yelp.com/biz/dtla-bodega-los-angeles?adjust_creative=X5Beq4YFcWJGL3TdpUzGVg&utm_campaign=yelp_api_v3&utm_medium=api_v3_business_search&utm_source=X5Beq4YFcWJGL3TdpUzGVg,scAFYZFTI0Lu98N0Rs9nQw,34.044614,-118.251801,delis,Delis,2
"Bonbonerie Cafe",1,4.0,"719 S Los Angeles St",,"Los Angeles",CA,90014,https://www.yelp.com/biz/bonbonerie-cafe-los-angeles?adjust_creative=X5Beq4YFcWJGL3TdpUzGVg&utm_campaign=yelp_api_v3&utm_medium=api_v3_business_search&utm_source=X5Beq4YFcWJGL3TdpUzGVg,hRPPzV584G5nUviq_0oZeQ,34.04301,-118.25124,coffee,"Coffee & Tea",2
"The Reserve",260,3.5,"650 S Spring St",,"Los Angeles",CA,90014,https://www.yelp.com/biz/the-reserve-los-angeles-2?adjust_creative=X5Beq4YFcWJGL3TdpUzGVg&utm_campaign=yelp_api_v3&utm_medium=api_v3_business_search&utm_source=X5Beq4YFcWJGL3TdpUzGVg,m5DOIheloy_fYL5grSs-bw,34.04462,-118.25178,danceclubs,"Dance Clubs",2
"Heritage Kitchen",4,4.5,"724 S Spring St",,"Los Angeles",CA,90014,https://www.yelp.com/biz/heritage-kitchen-los-angeles?adjust_creative=X5Beq4YFcWJGL3TdpUzGVg&utm_campaign=yelp_api_v3&utm_medium=api_v3_business_search&utm_source=X5Beq4YFcWJGL3TdpUzGVg,dj0P_k5GSrUQtZBNk0dn1Q,34.0438563777192,-118.252698281481,newmexican,"New Mexican Cuisine",2
"Juice Crafters",293,4.0,"702 S Spring St",,"Los Angeles",CA,90014,https://www.yelp.com/biz/juice-crafters-los-angeles-13?adjust_creative=X5Beq4YFcWJGL3TdpUzGVg&utm_campaign=yelp_api_v3&utm_medium=api_v3_business_search&utm_source=X5Beq4YFcWJGL3TdpUzGVg,wm7t-vDsCwbw3ykfuKTVTg,34.0444965,-118.2524932,juicebars,"Juice Bars & Smoothies",2
"Guero's Cocina Mexicana",152,4.5,"737 S Los Angeles St",,"Los Angeles",CA,90014,https://www.yelp.com/biz/gueros-cocina-mexicana-los-angeles?adjust_creative=X5Beq4YFcWJGL3TdpUzGVg&utm_campaign=yelp_api_v3&utm_medium=api_v3_business_search&utm_source=X5Beq4YFcWJGL3TdpUzGVg,RLn3T-U9_iyIuxZ1evzJkw,34.0427,-118.251661,mexican,Mexican,2
"Gyoza Boyz DTLA",29,3.5,"724 S Spring St","Corporation Food Hall","Los Angeles",CA,90014,https://www.yelp.com/biz/gyoza-boyz-dtla-los-angeles?adjust_creative=X5Beq4YFcWJGL3TdpUzGVg&utm_campaign=yelp_api_v3&utm_medium=api_v3_business_search&utm_source=X5Beq4YFcWJGL3TdpUzGVg,Vz-vcwRDwQLxlIgAUACu5A,34.0437727761669,-118.252955633491,japanese,Japanese,2
"Tierra Mia Coffee",441,4.5,"653 S Spring St",,"Los Angeles",CA,90014,https://www.yelp.com/biz/tierra-mia-coffee-los-angeles?adjust_creative=X5Beq4YFcWJGL3TdpUzGVg&utm_campaign=yelp_api_v3&utm_medium=api_v3_business_search&utm_source=X5Beq4YFcWJGL3TdpUzGVg,YxXdWO8uE84evYVbp-5Gqw,34.045240804553,-118.251737728715,coffee,"Coffee & Tea",2
Subway,16,1.5,"712 S Los Angeles St",,"Los Angeles",CA,90014,https://www.yelp.com/biz/subway-los-angeles-317?adjust_creative=X5Beq4YFcWJGL3TdpUzGVg&utm_campaign=yelp_api_v3&utm_medium=api_v3_business_search&utm_source=X5Beq4YFcWJGL3TdpUzGVg,Ykha_LaNcRiexqU14bzarQ,34.0428345570209,-118.250675744342,sandwiches,Sandwiches,2
"Pizza Hut",83,1.5,"718 S Los Angeles St","Unit C","Los Angeles",CA,90014,https://www.yelp.com/biz/pizza-hut-los-angeles-92?adjust_creative=X5Beq4YFcWJGL3TdpUzGVg&utm_campaign=yelp_api_v3&utm_medium=api_v3_business_search&utm_source=X5Beq4YFcWJGL3TdpUzGVg,NAIvacyy-XCROjMHdLq42A,34.04270305553276,-118.250792,chicken_wings,"Chicken Wings",2
"Little Fluffy Head Cafe",466,4.5,"203 W 7th St",,"Los Angeles",CA,90014,https://www.yelp.com/biz/little-fluffy-head-cafe-los-angeles?adjust_creative=X5Beq4YFcWJGL3TdpUzGVg&utm_campaign=yelp_api_v3&utm_medium=api_v3_business_search&utm_source=X5Beq4YFcWJGL3TdpUzGVg,_Cop86udfkWP81q1VT_Q5A,34.0447553,-118.2523943,bubbletea,"Bubble Tea",2
"The Falls",533,4.0,"626 S Spring St",,"Los Angeles",CA,90014,https://www.yelp.com/biz/the-falls-los-angeles?adjust_creative=X5Beq4YFcWJGL3TdpUzGVg&utm_campaign=yelp_api_v3&utm_medium=api_v3_business_search&utm_source=X5Beq4YFcWJGL3TdpUzGVg,76XDB7MLLyj2MXfOnFhP3Q,34.04512,-118.25128,lounges,Lounges,2
"Vegan Hooligans",81,4.5,"718 S Los Angeles",,"Los Angeles",CA,90014,https://www.yelp.com/biz/vegan-hooligans-los-angeles-6?adjust_creative=X5Beq4YFcWJGL3TdpUzGVg&utm_campaign=yelp_api_v3&utm_medium=api_v3_business_search&utm_source=X5Beq4YFcWJGL3TdpUzGVg,7HLhR2RfkLyc7jjRUZUvww,34.042728,-118.250771,vegan,Vegan,2
"BROKEN MOUTH | Lee's Homestyle",1144,5.0,"718 S Los Angeles St",,"Los Angeles",CA,90014,https://www.yelp.com/biz/broken-mouth-lees-homestyle-los-angeles-5?adjust_creative=X5Beq4YFcWJGL3TdpUzGVg&utm_campaign=yelp_api_v3&utm_medium=api_v3_business_search&utm_source=X5Beq4YFcWJGL3TdpUzGVg,CcqraT0cuGKYEcZ1ri_kxg,34.04275,-118.25081,hawaiian,Hawaiian,2
"Holy Basil",167,4.5,"718 S Los Angeles St","Unit A","Los Angeles",CA,90014,https://www.yelp.com/biz/holy-basil-los-angeles?adjust_creative=X5Beq4YFcWJGL3TdpUzGVg&utm_campaign=yelp_api_v3&utm_medium=api_v3_business_search&utm_source=X5Beq4YFcWJGL3TdpUzGVg,gX802b6PyS51OjFrXacWfA,34.042728,-118.250771,thai,Thai,2
"Spring Street Bar",560,4.0,"626-B S Spring St",,"Los Angeles",CA,90014,https://www.yelp.com/biz/spring-street-bar-los-angeles-2?adjust_creative=X5Beq4YFcWJGL3TdpUzGVg&utm_campaign=yelp_api_v3&utm_medium=api_v3_business_search&utm_source=X5Beq4YFcWJGL3TdpUzGVg,bDh2drw3BO7T3xWGRQG3fQ,34.04519847943077,-118.25151490789511,sandwiches,Sandwiches,2
"LA Café",2075,3.5,"639 S Spring St",,"Los Angeles",CA,90014,https://www.yelp.com/biz/la-caf%C3%A9-los-angeles-2?adjust_creative=X5Beq4YFcWJGL3TdpUzGVg&utm_campaign=yelp_api_v3&utm_medium=api_v3_business_search&utm_source=X5Beq4YFcWJGL3TdpUzGVg,-gvbpI_PayXy9agbPiGbpA,34.045171,-118.252104,breakfast_brunch,"Breakfast & Brunch",2
"Basil & Cheese Cafe",2,5.0,"757 S Main St",,"Los Angeles",CA,90014,https://www.yelp.com/biz/basil-and-cheese-cafe-los-angeles?adjust_creative=X5Beq4YFcWJGL3TdpUzGVg&utm_campaign=yelp_api_v3&utm_medium=api_v3_business_search&utm_source=X5Beq4YFcWJGL3TdpUzGVg,mhbkTwEgIW4rVtK3JVcgeA,34.04295,-118.25314,coffee,"Coffee & Tea",2
"Taco Mundo",4,4.0,"105 E 8th St",,"Los Angeles",CA,90014,https://www.yelp.com/biz/taco-mundo-los-angeles?adjust_creative=X5Beq4YFcWJGL3TdpUzGVg&utm_campaign=yelp_api_v3&utm_medium=api_v3_business_search&utm_source=X5Beq4YFcWJGL3TdpUzGVg,S0r-tYSncjdJ58rtXnuEtg,34.0426399,-118.2528752,mexican,Mexican,2
"Soup Bazaar",51,4.5,"105 E 8th St",,"Los Angeles",CA,90014,https://www.yelp.com/biz/soup-bazaar-los-angeles?adjust_creative=X5Beq4YFcWJGL3TdpUzGVg&utm_campaign=yelp_api_v3&utm_medium=api_v3_business_search&utm_source=X5Beq4YFcWJGL3TdpUzGVg,5bBhd7c0WtgRBIoa2VXnug,34.04263,-118.25283,soup,Soup,2
"502 crepes & smoothies",1,1.0,"763 S Los Angeles St Los Angeles Ca 90014",,"Los Angeles",CA,90014,https://www.yelp.com/biz/502-crepes-and-smoothies-los-angeles?adjust_creative=X5Beq4YFcWJGL3TdpUzGVg&utm_campaign=yelp_api_v3&utm_medium=api_v3_business_search&utm_source=X5Beq4YFcWJGL3TdpUzGVg,77DgYBv4O-OZAj9tqxBq5w,34.04226,-118.25239,creperies,Creperies,2
"Village Market",3,1.0,"220 W 7th St",,"Los Angeles",CA,90014,https://www.yelp.com/biz/village-market-los-angeles-5?adjust_creative=X5Beq4YFcWJGL3TdpUzGVg&utm_campaign=yelp_api_v3&utm_medium=api_v3_business_search&utm_source=X5Beq4YFcWJGL3TdpUzGVg,pAfn_fpfInYukWH8aqjlXg,34.0449293,-118.2529701,grocery,Grocery,2
"Fox and Moon Tearoom",5,5.0,"758 S Spring St",,"Los Angeles",CA,90014,https://www.yelp.com/biz/fox-and-moon-tearoom-los-angeles?adjust_creative=X5Beq4YFcWJGL3TdpUzGVg&utm_campaign=yelp_api_v3&utm_medium=api_v3_business_search&utm_source=X5Beq4YFcWJGL3TdpUzGVg,WxnnhlYQpJ0ga5VD3fiKkQ,34.043100742360714,-118.253386,tea,"Tea Rooms",2
"Casa La Doña",692,4.5,"800 S Main St",,"Los Angeles",CA,90014,https://www.yelp.com/biz/casa-la-do%C3%B1a-los-angeles-2?adjust_creative=X5Beq4YFcWJGL3TdpUzGVg&utm_campaign=yelp_api_v3&utm_medium=api_v3_business_search&utm_source=X5Beq4YFcWJGL3TdpUzGVg,5o_XEyhLrgpB6Cmeqp9NGg,34.0427123,-118.2531436,mexican,Mexican,2
"Maxwell Edwins Pop Up Brunch",5,4.0,"221 W 7th St",,"Los Angeles",CA,90014,https://www.yelp.com/biz/maxwell-edwins-pop-up-brunch-los-angeles?adjust_creative=X5Beq4YFcWJGL3TdpUzGVg&utm_campaign=yelp_api_v3&utm_medium=api_v3_business_search&utm_source=X5Beq4YFcWJGL3TdpUzGVg,xIOM_74FRDY7ydhZcoSHqQ,34.0450847,-118.252874,breakfast_brunch,"Breakfast & Brunch",2
"Paradis Ice Cream DTLA",211,5.0,"755 S Spring St","Ste 101","Los Angeles",CA,90014,https://www.yelp.com/biz/paradis-ice-cream-dtla-los-angeles-2?adjust_creative=X5Beq4YFcWJGL3TdpUzGVg&utm_campaign=yelp_api_v3&utm_medium=api_v3_business_search&utm_source=X5Beq4YFcWJGL3TdpUzGVg,KM5G9esZnEd8KHMbo7IC1g,34.043496,-118.253683,icecream,"Ice Cream & Frozen Yogurt",2
"Ramen Melrose",72,4.0,"225 W 7th St",,"Los Angeles",CA,90014,https://www.yelp.com/biz/ramen-melrose-los-angeles-3?adjust_creative=X5Beq4YFcWJGL3TdpUzGVg&utm_campaign=yelp_api_v3&utm_medium=api_v3_business_search&utm_source=X5Beq4YFcWJGL3TdpUzGVg,P16ugz-pQN_NWjWb7fwcNg,34.0451204,-118.2529968392666,ramen,Ramen,2
"WineBar - CoffeeBar",3,4.5,"600 S Spring St",,"Los Angeles",CA,90014,https://www.yelp.com/biz/winebar-coffeebar-los-angeles?adjust_creative=X5Beq4YFcWJGL3TdpUzGVg&utm_campaign=yelp_api_v3&utm_medium=api_v3_business_search&utm_source=X5Beq4YFcWJGL3TdpUzGVg,a78Elp2Av8wjAmnE0sPNsw,34.045545,-118.2510747,newamerican,"American (New)",2
"The Varnish",1190,4.0,"118 E 6th St",,"Los Angeles",CA,90014,https://www.yelp.com/biz/the-varnish-los-angeles-2?adjust_creative=X5Beq4YFcWJGL3TdpUzGVg&utm_campaign=yelp_api_v3&utm_medium=api_v3_business_search&utm_source=X5Beq4YFcWJGL3TdpUzGVg,3wLmWg7VpSIt7LAmQmhIdA,34.044893158169,-118.24979702707,cocktailbars,"Cocktail Bars",2
Beelman's,402,4.5,"600 S Spring St",,"Los Angeles",CA,90014,https://www.yelp.com/biz/beelmans-los-angeles-4?adjust_creative=X5Beq4YFcWJGL3TdpUzGVg&utm_campaign=yelp_api_v3&utm_medium=api_v3_business_search&utm_source=X5Beq4YFcWJGL3TdpUzGVg,PnWqQ9aXT2Yd5jPMu7xUVg,34.04552,-118.25087,pubs,Pubs,2
"Carl's Jr",29,2.0,"708 S Broadway",,"Los Angeles",CA,90014,https://www.yelp.com/biz/carls-jr-los-angeles-40?adjust_creative=X5Beq4YFcWJGL3TdpUzGVg&utm_campaign=yelp_api_v3&utm_medium=api_v3_business_search&utm_source=X5Beq4YFcWJGL3TdpUzGVg,aJkfRUW0rgDYztRXUrk87g,34.0449657,-118.2534014,burgers,Burgers,2
"Silverlake Ramen DTLA",272,4.0,"615 S Spring St",,"Los Angeles",CA,90014,https://www.yelp.com/biz/silverlake-ramen-dtla-los-angeles-2?adjust_creative=X5Beq4YFcWJGL3TdpUzGVg&utm_campaign=yelp_api_v3&utm_medium=api_v3_business_search&utm_source=X5Beq4YFcWJGL3TdpUzGVg,qbX-jR8QBAGWZ5WHw0Js8A,34.0456900880384,-118.251432292163,ramen,Ramen,2
"The Association",891,3.5,"110 E 6th St",,"Los Angeles",CA,90014,https://www.yelp.com/biz/the-association-los-angeles-2?adjust_creative=X5Beq4YFcWJGL3TdpUzGVg&utm_campaign=yelp_api_v3&utm_medium=api_v3_business_search&utm_source=X5Beq4YFcWJGL3TdpUzGVg,ED0LXjSGWkuWw-zIyDXpFw,34.0450503,-118.2498806,lounges,Lounges,2
"TBLA Catering & Cafe",200,4.5,"765 Santee St",,"Los Angeles",CA,90014,https://www.yelp.com/biz/tbla-catering-and-cafe-los-angeles?adjust_creative=X5Beq4YFcWJGL3TdpUzGVg&utm_campaign=yelp_api_v3&utm_medium=api_v3_business_search&utm_source=X5Beq4YFcWJGL3TdpUzGVg,Ff0tTFNnkJsOooPs7sutww,34.04184,-118.25141,newamerican,"American (New)",2
"Peking Tavern",777,4.0,"806 S Spring St",,"Los Angeles",CA,90014,https://www.yelp.com/biz/peking-tavern-los-angeles-3?adjust_creative=X5Beq4YFcWJGL3TdpUzGVg&utm_campaign=yelp_api_v3&utm_medium=api_v3_business_search&utm_source=X5Beq4YFcWJGL3TdpUzGVg,iOuz4WzpUaG6MOajq4Hi2A,34.0427621,-118.2536515,gastropubs,Gastropubs,2
"Joe's Pizza",406,3.5,"613 S Spring St",,"Los Angeles",CA,90014,https://www.yelp.com/biz/joes-pizza-los-angeles-9?adjust_creative=X5Beq4YFcWJGL3TdpUzGVg&utm_campaign=yelp_api_v3&utm_medium=api_v3_business_search&utm_source=X5Beq4YFcWJGL3TdpUzGVg,548qvmtY5kwEUwZ_y9W8bQ,34.04574,-118.25155,pizza,Pizza,2
"Cole's French Dip",2248,3.5,"118 E 6th St",,"Los Angeles",CA,90014,https://www.yelp.com/biz/coles-french-dip-los-angeles?adjust_creative=X5Beq4YFcWJGL3TdpUzGVg&utm_campaign=yelp_api_v3&utm_medium=api_v3_business_search&utm_source=X5Beq4YFcWJGL3TdpUzGVg,bboQgpFxDeQH5L5hHRDk1A,34.044846,-118.249564,bars,Bars,2
"Clifton's Republic",2007,3.0,"648 S Broadway",,"Los Angeles",CA,90014,https://www.yelp.com/biz/cliftons-republic-los-angeles-2?adjust_creative=X5Beq4YFcWJGL3TdpUzGVg&utm_campaign=yelp_api_v3&utm_medium=api_v3_business_search&utm_source=X5Beq4YFcWJGL3TdpUzGVg,vwWTF9KhrL1l6LclQg8fxg,34.0454,-118.25294,bars,Bars,2
"Pacific Seas",144,3.5,"648 South Broadway",,"Los Angeles",CA,90014,https://www.yelp.com/biz/pacific-seas-los-angeles?adjust_creative=X5Beq4YFcWJGL3TdpUzGVg&utm_campaign=yelp_api_v3&utm_medium=api_v3_business_search&utm_source=X5Beq4YFcWJGL3TdpUzGVg,-XOoeUnlPDnPfZn6mv-rGg,34.0454,-118.25294,tikibars,"Tiki Bars",2
"Clifton's Restaurants",34,3.0,"648 S Broadway",,"Los Angeles",CA,90014,https://www.yelp.com/biz/cliftons-restaurants-los-angeles?adjust_creative=X5Beq4YFcWJGL3TdpUzGVg&utm_campaign=yelp_api_v3&utm_medium=api_v3_business_search&utm_source=X5Beq4YFcWJGL3TdpUzGVg,nsHPqx4QGanmnMqtx8f_8Q,34.04527,-118.25281,tradamerican,"American (Traditional)",2
"Monarch Bar",4,4.0,"Clifton's Cafeteria",,"Los Angeles",CA,90014,https://www.yelp.com/biz/monarch-bar-los-angeles?adjust_creative=X5Beq4YFcWJGL3TdpUzGVg&utm_campaign=yelp_api_v3&utm_medium=api_v3_business_search&utm_source=X5Beq4YFcWJGL3TdpUzGVg,WONDRTFibf5LZx3343VgMg,34.04528,-118.252815,bars,Bars,2
"The Dolly Llama",542,4.0,"611 S Spring St",,"Los Angeles",CA,90014,https://www.yelp.com/biz/the-dolly-llama-los-angeles?adjust_creative=X5Beq4YFcWJGL3TdpUzGVg&utm_campaign=yelp_api_v3&utm_medium=api_v3_business_search&utm_source=X5Beq4YFcWJGL3TdpUzGVg,P-BxXRT5V6D7YtggfsMgYw,34.045819,-118.251491,desserts,Desserts,2
"Tacos 1986",623,3.5,"609 S Spring St",,"Los Angeles",CA,90014,https://www.yelp.com/biz/tacos-1986-los-angeles?adjust_creative=X5Beq4YFcWJGL3TdpUzGVg&utm_campaign=yelp_api_v3&utm_medium=api_v3_business_search&utm_source=X5Beq4YFcWJGL3TdpUzGVg,k3D-nW6EjjJguYkUupCUaA,34.0458186,-118.2514334,tacos,Tacos,2
"Gothic Bar",15,3.0,"648 S Broadway",,"Los Angeles",CA,90014,https://www.yelp.com/biz/gothic-bar-los-angeles?adjust_creative=X5Beq4YFcWJGL3TdpUzGVg&utm_campaign=yelp_api_v3&utm_medium=api_v3_business_search&utm_source=X5Beq4YFcWJGL3TdpUzGVg,m7WUiE51bis2DCzVGG-Wew,34.045448,-118.2530344,bars,Bars,2
"Rico Taco",2,3.5,"206 W 8th St",,"Los Angeles",CA,90014,https://www.yelp.com/biz/rico-taco-los-angeles?adjust_creative=X5Beq4YFcWJGL3TdpUzGVg&utm_campaign=yelp_api_v3&utm_medium=api_v3_business_search&utm_source=X5Beq4YFcWJGL3TdpUzGVg,3KcJHfnghCgr4Fs32pOCIQ,34.0430907,-118.2540021,mexican,Mexican,2
Mignon,459,4.0,"128 E 6th St",,"Los Angeles",CA,90014,https://www.yelp.com/biz/mignon-los-angeles-2?adjust_creative=X5Beq4YFcWJGL3TdpUzGVg&utm_campaign=yelp_api_v3&utm_medium=api_v3_business_search&utm_source=X5Beq4YFcWJGL3TdpUzGVg,LhIV95NXNmhjLH5f4YBmBQ,34.0448687,-118.2496209,wine_bars,"Wine Bars",2
"AIR FOOD L’APPART",85,5.0,"130 E 6th St",,"Los Angeles",CA,90014,https://www.yelp.com/biz/air-food-l-appart-los-angeles-3?adjust_creative=X5Beq4YFcWJGL3TdpUzGVg&utm_campaign=yelp_api_v3&utm_medium=api_v3_business_search&utm_source=X5Beq4YFcWJGL3TdpUzGVg,VB9-IUhiToEhirKHh7M7AA,34.04478667,-118.24913033,french,French,2
"Julio's Burgers",2,4.5,"730 S Broadway",,"Los Angeles",CA,90014,https://www.yelp.com/biz/julios-burgers-los-angeles?adjust_creative=X5Beq4YFcWJGL3TdpUzGVg&utm_campaign=yelp_api_v3&utm_medium=api_v3_business_search&utm_source=X5Beq4YFcWJGL3TdpUzGVg,t9k0TP1m5djiihGsLw0jHg,34.044189453125,-118.253829956055,burgers,Burgers,2
"Crane's Bar Downtown",184,4.0,"810 S Spring St",,"Los Angeles",CA,90014,https://www.yelp.com/biz/cranes-bar-downtown-los-angeles?adjust_creative=X5Beq4YFcWJGL3TdpUzGVg&utm_campaign=yelp_api_v3&utm_medium=api_v3_business_search&utm_source=X5Beq4YFcWJGL3TdpUzGVg,AthyxvehEN0qoiWHB0a6BA,34.043169,-118.254065,divebars,"Dive Bars",2
"Anwar's Kitchen",145,4.5,"217 E 8th St",,"Los Angeles",CA,90014,https://www.yelp.com/biz/anwars-kitchen-los-angeles-2?adjust_creative=X5Beq4YFcWJGL3TdpUzGVg&utm_campaign=yelp_api_v3&utm_medium=api_v3_business_search&utm_source=X5Beq4YFcWJGL3TdpUzGVg,98nL1641VKFPGBjCjVlaNA,34.041661,-118.25157,mediterranean,Mediterranean,2
Sonoratown,1504,4.5,"208 E 8th St",,"Los Angeles",CA,90014,https://www.yelp.com/biz/sonoratown-los-angeles?adjust_creative=X5Beq4YFcWJGL3TdpUzGVg&utm_campaign=yelp_api_v3&utm_medium=api_v3_business_search&utm_source=X5Beq4YFcWJGL3TdpUzGVg,Ti2Ksp2oPj6rpdp2tQcaVA,34.041648,-118.252245,mexican,Mexican,2
Starbucks,172,2.5,"603 S Spring St",,"Los Angeles",CA,90014,https://www.yelp.com/biz/starbucks-los-angeles-234?adjust_creative=X5Beq4YFcWJGL3TdpUzGVg&utm_campaign=yelp_api_v3&utm_medium=api_v3_business_search&utm_source=X5Beq4YFcWJGL3TdpUzGVg,VilfzV9B8v8P1ZAWDob_5Q,34.0459494,-118.25122,coffee,"Coffee & Tea",2
"Urban Mayan Cafe",8,5.0,"701 South Broadway St",,"Los Angeles",CA,90014,https://www.yelp.com/biz/urban-mayan-cafe-los-angeles?adjust_creative=X5Beq4YFcWJGL3TdpUzGVg&utm_campaign=yelp_api_v3&utm_medium=api_v3_business_search&utm_source=X5Beq4YFcWJGL3TdpUzGVg,1sRDzw23ZmQ8HIzS7yi5kA,34.04515,-118.25393,cafes,Cafes,2
"Seven Star Coffee 2",1,5.0,"701 S Broadway",,"Los Angeles",CA,90014,https://www.yelp.com/biz/seven-star-coffee-2-los-angeles?adjust_creative=X5Beq4YFcWJGL3TdpUzGVg&utm_campaign=yelp_api_v3&utm_medium=api_v3_business_search&utm_source=X5Beq4YFcWJGL3TdpUzGVg,6pNvhjH87qq1ymNWGN-57g,34.04515,-118.25393,coffee,"Coffee & Tea",2
"Wake & Late",890,4.5,"105 East 6th St",,"Los Angeles",CA,90014,https://www.yelp.com/biz/wake-and-late-los-angeles-3?adjust_creative=X5Beq4YFcWJGL3TdpUzGVg&utm_campaign=yelp_api_v3&utm_medium=api_v3_business_search&utm_source=X5Beq4YFcWJGL3TdpUzGVg,GMyarj6vbMqr-sS2UG4KVw,34.045188,-118.249536,coffee,"Coffee & Tea",2
"JJ's Sandwich Shop",210,4.5,"119 E 6th St",,"Los Angeles",CA,90014,https://www.yelp.com/biz/jjs-sandwich-shop-los-angeles?adjust_creative=X5Beq4YFcWJGL3TdpUzGVg&utm_campaign=yelp_api_v3&utm_medium=api_v3_business_search&utm_source=X5Beq4YFcWJGL3TdpUzGVg,XvRlza3pMntYRiCYxIXueQ,34.0450287835494,-118.249517065537,sandwiches,Sandwiches,2
Nabeeya,339,4.5,"766 S Santee St",,"Los Angeles",CA,90014,https://www.yelp.com/biz/nabeeya-los-angeles?adjust_creative=X5Beq4YFcWJGL3TdpUzGVg&utm_campaign=yelp_api_v3&utm_medium=api_v3_business_search&utm_source=X5Beq4YFcWJGL3TdpUzGVg,vobM2Ootv9omVWblCWirDw,34.041565,-118.251176202377,sushi,"Sushi Bars",2
"Arto's Broadway Deli",74,4.5,"659 S Broadway",,"Los Angeles",CA,90014,https://www.yelp.com/biz/artos-broadway-deli-los-angeles?adjust_creative=X5Beq4YFcWJGL3TdpUzGVg&utm_campaign=yelp_api_v3&utm_medium=api_v3_business_search&utm_source=X5Beq4YFcWJGL3TdpUzGVg,xHEclUO9Z7nKU-jfZMDMXw,34.0455509,-118.2532633,delis,Delis,2
"Las Perlas",749,4.0,"107 E 6th St",,"Los Angeles",CA,90014,https://www.yelp.com/biz/las-perlas-los-angeles?adjust_creative=X5Beq4YFcWJGL3TdpUzGVg&utm_campaign=yelp_api_v3&utm_medium=api_v3_business_search&utm_source=X5Beq4YFcWJGL3TdpUzGVg,iRCPKpFpwvj18kOkPtA5Lw,34.0450325012207,-118.249336242676,lounges,Lounges,2
"6th Street Market",21,3.0,"212 W 6th St",,"Los Angeles",CA,90014,https://www.yelp.com/biz/6th-street-market-los-angeles?adjust_creative=X5Beq4YFcWJGL3TdpUzGVg&utm_campaign=yelp_api_v3&utm_medium=api_v3_business_search&utm_source=X5Beq4YFcWJGL3TdpUzGVg,Mu6nLKtvFNTsbCn9ez_EOg,34.046025449775,-118.251406595783,grocery,Grocery,2
"Rhythm Room LA",304,4.5,"206 W 6th St",,"Los Angeles",CA,90014,https://www.yelp.com/biz/rhythm-room-la-los-angeles-4?adjust_creative=X5Beq4YFcWJGL3TdpUzGVg&utm_campaign=yelp_api_v3&utm_medium=api_v3_business_search&utm_source=X5Beq4YFcWJGL3TdpUzGVg,c1ozv7ODg7wBTEgWast0eA,34.0460420449571,-118.251199635686,musicvenues,"Music Venues",2
"Los Angeles Biergarten",157,3.5,"750 S Broadway",,"Los Angeles",CA,90014,https://www.yelp.com/biz/los-angeles-biergarten-los-angeles?adjust_creative=X5Beq4YFcWJGL3TdpUzGVg&utm_campaign=yelp_api_v3&utm_medium=api_v3_business_search&utm_source=X5Beq4YFcWJGL3TdpUzGVg,VXwJkEJoaF_JYX3kOHtO5Q,34.04393,-118.25432,tradamerican,"American (Traditional)",1
"Uncle Paulie’s",69,4.0,"820 S Spring St",,"Los Angeles",CA,90014,https://www.yelp.com/biz/uncle-paulie-s-los-angeles-2?adjust_creative=X5Beq4YFcWJGL3TdpUzGVg&utm_campaign=yelp_api_v3&utm_medium=api_v3_business_search&utm_source=X5Beq4YFcWJGL3TdpUzGVg,RWj-4Y6aushcuSi7eFHPFg,34.04249,-118.25391,sandwiches,Sandwiches,1
"Co Lab",1,5.0,"769 Santee St",,"Los Angeles",CA,90014,https://www.yelp.com/biz/co-lab-los-angeles?adjust_creative=X5Beq4YFcWJGL3TdpUzGVg&utm_campaign=yelp_api_v3&utm_medium=api_v3_business_search&utm_source=X5Beq4YFcWJGL3TdpUzGVg,MLUbXnWCshY5C3Zr27hoMg,34.0414498760429,-118.251359441319,coffee,"Coffee & Tea",1
"No Ghost Bears",341,4.0,"305 E 8th St","Unit 103","Los Angeles",CA,90014,https://www.yelp.com/biz/no-ghost-bears-los-angeles-2?adjust_creative=X5Beq4YFcWJGL3TdpUzGVg&utm_campaign=yelp_api_v3&utm_medium=api_v3_business_search&utm_source=X5Beq4YFcWJGL3TdpUzGVg,RGNxKOYPCA2exB2zYKqa7w,34.041442776373,-118.251420971164,coffee,"Coffee & Tea",1
"Juanita's Cafe",34,4.0,"717 S Broadway",,"Los Angeles",CA,90014,https://www.yelp.com/biz/juanitas-cafe-los-angeles-3?adjust_creative=X5Beq4YFcWJGL3TdpUzGVg&utm_campaign=yelp_api_v3&utm_medium=api_v3_business_search&utm_source=X5Beq4YFcWJGL3TdpUzGVg,w20QTxbXstwbFTvQAmlwAQ,34.044881,-118.2538079,mexican,Mexican,1
"Farid Restaurant",79,4.0,"635 S Broadway",,"Los Angeles",CA,90014,https://www.yelp.com/biz/farid-restaurant-los-angeles-2?adjust_creative=X5Beq4YFcWJGL3TdpUzGVg&utm_campaign=yelp_api_v3&utm_medium=api_v3_business_search&utm_source=X5Beq4YFcWJGL3TdpUzGVg,4MNpF8yY9moFqUbpyzulIQ,34.0458517,-118.2529937,persian,Persian/Iranian,1
"Redline Food & Bar",116,4.0,"131 E 6th St",,"Los Angeles",CA,90014,https://www.yelp.com/biz/redline-food-and-bar-los-angeles-2?adjust_creative=X5Beq4YFcWJGL3TdpUzGVg&utm_campaign=yelp_api_v3&utm_medium=api_v3_business_search&utm_source=X5Beq4YFcWJGL3TdpUzGVg,0bnsxTrakQ9hPUGMk00w7w,34.0448614111492,-118.249038684792,gaybars,"Gay Bars",1
"Localita:Plant Based Badasserie",297,4.0,"817 S Los Angeles St","Fl 1 Lobby","Los Angeles",CA,90014,https://www.yelp.com/biz/localita-plant-based-badasserie-los-angeles-2?adjust_creative=X5Beq4YFcWJGL3TdpUzGVg&utm_campaign=yelp_api_v3&utm_medium=api_v3_business_search&utm_source=X5Beq4YFcWJGL3TdpUzGVg,fUXwrys22--LeN109WrHww,34.0416726,-118.2530077,juicebars,"Juice Bars & Smoothies",1
Starbucks,1,4.0,"760-762 S Broadway",,"Los Angeles",CA,90014,https://www.yelp.com/biz/starbucks-los-angeles-562?adjust_creative=X5Beq4YFcWJGL3TdpUzGVg&utm_campaign=yelp_api_v3&utm_medium=api_v3_business_search&utm_source=X5Beq4YFcWJGL3TdpUzGVg,8X5tYCDn1MPRmDDiOjwYPA,34.0438,-118.25452414306966,coffee,"Coffee & Tea",1
"D-Town Burger Bar",326,3.5,"216 W 6th St",,"Los Angeles",CA,90014,https://www.yelp.com/biz/d-town-burger-bar-los-angeles?adjust_creative=X5Beq4YFcWJGL3TdpUzGVg&utm_campaign=yelp_api_v3&utm_medium=api_v3_business_search&utm_source=X5Beq4YFcWJGL3TdpUzGVg,lLWHbjsrUKpnsk22yYIZIA,34.0462270870956,-118.251471184194,burgers,Burgers,1
"Corner Kafe",5,2.0,"303 E 7th",,"Los Angeles",CA,90014,https://www.yelp.com/biz/corner-kafe-los-angeles-2?adjust_creative=X5Beq4YFcWJGL3TdpUzGVg&utm_campaign=yelp_api_v3&utm_medium=api_v3_business_search&utm_source=X5Beq4YFcWJGL3TdpUzGVg,57mFZWrN5SPCsxJw4_oC2g,34.0425033569336,-118.248992919922,breakfast_brunch,"Breakfast & Brunch",1
"Tacos Mexico",50,3.5,"312 W 7th St",,"Los Angeles",CA,90014,https://www.yelp.com/biz/tacos-mexico-los-angeles-8?adjust_creative=X5Beq4YFcWJGL3TdpUzGVg&utm_campaign=yelp_api_v3&utm_medium=api_v3_business_search&utm_source=X5Beq4YFcWJGL3TdpUzGVg,WQvsAGnWJcjUQQH3DMw8gA,34.0453095,-118.2537606,mexican,Mexican,1
"Tacos AF",15,4.0,"312 W 7th St",,"Los Angeles",CA,90014,https://www.yelp.com/biz/tacos-af-los-angeles?adjust_creative=X5Beq4YFcWJGL3TdpUzGVg&utm_campaign=yelp_api_v3&utm_medium=api_v3_business_search&utm_source=X5Beq4YFcWJGL3TdpUzGVg,oOijUFk2ekTzAQ7S2apOKQ,34.04540009509255,-118.25391789796186,tacos,Tacos,1
"Corleone Pizza",30,4.0,"310 W 7th St",,"Los Angeles",CA,90014,https://www.yelp.com/biz/corleone-pizza-los-angeles?adjust_creative=X5Beq4YFcWJGL3TdpUzGVg&utm_campaign=yelp_api_v3&utm_medium=api_v3_business_search&utm_source=X5Beq4YFcWJGL3TdpUzGVg,GKt8NecWqDAX6hbS_24afg,34.0453930199146,-118.253711163998,pizza,Pizza,1
"Pizza Xpress",5,2.0,"303 E 7th St",,"Los Angeles",CA,90014,https://www.yelp.com/biz/pizza-xpress-los-angeles?adjust_creative=X5Beq4YFcWJGL3TdpUzGVg&utm_campaign=yelp_api_v3&utm_medium=api_v3_business_search&utm_source=X5Beq4YFcWJGL3TdpUzGVg,1ayVk4yCuLEyCzZcFpfbig,34.0424184501171,-118.249099105597,pizza,Pizza,1
"Corner Kafe",8,2.5,"301 E 7th St",,"Los Angeles",CA,90014,https://www.yelp.com/biz/corner-kafe-los-angeles?adjust_creative=X5Beq4YFcWJGL3TdpUzGVg&utm_campaign=yelp_api_v3&utm_medium=api_v3_business_search&utm_source=X5Beq4YFcWJGL3TdpUzGVg,-E2F0hdgIK8Kfop5zS6jFg,34.0424766540527,-118.248817443848,cafes,Cafes,1
"Boketto Cold Brew",5,5.0,"743 B S Broadway",,"Los Angeles",CA,90014,https://www.yelp.com/biz/boketto-cold-brew-los-angeles?adjust_creative=X5Beq4YFcWJGL3TdpUzGVg&utm_campaign=yelp_api_v3&utm_medium=api_v3_business_search&utm_source=X5Beq4YFcWJGL3TdpUzGVg,gIkMwGQifvOyOL35LGSDEg,34.044369,-118.254626,coffee,"Coffee & Tea",1
"Chicken Shrimp & Fries",1,5.0,"745 S Broadway",,"Los Angeles",CA,90014,https://www.yelp.com/biz/chicken-shrimp-and-fries-los-angeles?adjust_creative=X5Beq4YFcWJGL3TdpUzGVg&utm_campaign=yelp_api_v3&utm_medium=api_v3_business_search&utm_source=X5Beq4YFcWJGL3TdpUzGVg,4tbkAVhTGjeafHS5vvre8g,34.04426,-118.2545,chicken_wings,"Chicken Wings",1
"Pizza Italia",17,4.0,"311 W 7th St",,"Los Angeles",CA,90014,https://www.yelp.com/biz/pizza-italia-los-angeles?adjust_creative=X5Beq4YFcWJGL3TdpUzGVg&utm_campaign=yelp_api_v3&utm_medium=api_v3_business_search&utm_source=X5Beq4YFcWJGL3TdpUzGVg,zYRRaMJkvnSGKt49h2iFsA,34.04556,-118.25351,pizza,Pizza,1
"House of Pizza",6,4.0,"311 W 7th St",,"Los Angeles",CA,90014,https://www.yelp.com/biz/house-of-pizza-los-angeles?adjust_creative=X5Beq4YFcWJGL3TdpUzGVg&utm_campaign=yelp_api_v3&utm_medium=api_v3_business_search&utm_source=X5Beq4YFcWJGL3TdpUzGVg,mocdZfSh9pGbHzVFKfe5lQ,34.04556,-118.25351,pizza,Pizza,1
"Artesano Tamaleria",63,4.5,"819 Santee St",,"Los Angeles",CA,90014,https://www.yelp.com/biz/artesano-tamaleria-los-angeles?adjust_creative=X5Beq4YFcWJGL3TdpUzGVg&utm_campaign=yelp_api_v3&utm_medium=api_v3_business_search&utm_source=X5Beq4YFcWJGL3TdpUzGVg,IeOYX7Hc7AXxyFVnT2WfPA,34.0412,-118.25224,mexican,Mexican,1
"Sevan Garden Kebab House",154,4.0,"621 S Broadway",,"Los Angeles",CA,90014,https://www.yelp.com/biz/sevan-garden-kebab-house-los-angeles?adjust_creative=X5Beq4YFcWJGL3TdpUzGVg&utm_campaign=yelp_api_v3&utm_medium=api_v3_business_search&utm_source=X5Beq4YFcWJGL3TdpUzGVg,JbIuJKkmv2SUkzZnbixFQQ,34.046256,-118.252875,mediterranean,Mediterranean,1
"Garo's Deli",82,5.0,"659 Saint Vincent Ct","Ste GL106","Los Angeles",CA,90014,https://www.yelp.com/biz/garos-deli-los-angeles?adjust_creative=X5Beq4YFcWJGL3TdpUzGVg&utm_campaign=yelp_api_v3&utm_medium=api_v3_business_search&utm_source=X5Beq4YFcWJGL3TdpUzGVg,alMirqjoKov0RLH8aYFwdA,34.0458311,-118.2538519,delis,Delis,1
"The Dutch Chocolate Shop",2,5.0,"217 W 6th St",,"Los Angeles",CA,90014,https://www.yelp.com/biz/the-dutch-chocolate-shop-los-angeles?adjust_creative=X5Beq4YFcWJGL3TdpUzGVg&utm_campaign=yelp_api_v3&utm_medium=api_v3_business_search&utm_source=X5Beq4YFcWJGL3TdpUzGVg,ksERFVMFRHktF9X_eRXVsA,34.04652,-118.25137,landmarks,"Landmarks & Historical Buildings",1
"Verve Coffee Roasters",730,4.0,"833 S Spring St",,"Los Angeles",CA,90014,https://www.yelp.com/biz/verve-coffee-roasters-los-angeles-2?adjust_creative=X5Beq4YFcWJGL3TdpUzGVg&utm_campaign=yelp_api_v3&utm_medium=api_v3_business_search&utm_source=X5Beq4YFcWJGL3TdpUzGVg,NLMNtxK-CZFY0J4PsHFVrw,34.0423623381666,-118.254501991034,coffeeroasteries,"Coffee Roasteries",1
"Sally's Snack Shop",3,5.0,"228 W 6th St",,"Los Angeles",CA,90014,https://www.yelp.com/biz/sallys-snack-shop-los-angeles?adjust_creative=X5Beq4YFcWJGL3TdpUzGVg&utm_campaign=yelp_api_v3&utm_medium=api_v3_business_search&utm_source=X5Beq4YFcWJGL3TdpUzGVg,lmF_svaSOMjPITPzE1n5RQ,34.046579,-118.251795,foodstands,"Food Stands",1
"Restaurant Las Costenitas",2,4.5,"805 S Broadway",,"Los Angeles",CA,90014,https://www.yelp.com/biz/restaurant-las-costenitas-los-angeles?adjust_creative=X5Beq4YFcWJGL3TdpUzGVg&utm_campaign=yelp_api_v3&utm_medium=api_v3_business_search&utm_source=X5Beq4YFcWJGL3TdpUzGVg,L81DkJmNQd8br7irk8l5gA,34.0436639,-118.2549639,tradamerican,"American (Traditional)",1
"Burris On Broadway",7,3.5,"223 W 6th St",,"Los Angeles",CA,90014,https://www.yelp.com/biz/burris-on-broadway-los-angeles?adjust_creative=X5Beq4YFcWJGL3TdpUzGVg&utm_campaign=yelp_api_v3&utm_medium=api_v3_business_search&utm_source=X5Beq4YFcWJGL3TdpUzGVg,4n_n4ctnX6KV1OcuV3yF8g,34.0464445,-118.2514729,mexican,Mexican,1
"Birria on Broadway",29,5.0,"223 W 6th St",,"Los Angeles",CA,90014,https://www.yelp.com/biz/birria-on-broadway-los-angeles?adjust_creative=X5Beq4YFcWJGL3TdpUzGVg&utm_campaign=yelp_api_v3&utm_medium=api_v3_business_search&utm_source=X5Beq4YFcWJGL3TdpUzGVg,_ThLbHleFLqlVsdXlsZBBQ,34.04664018234895,-118.25161166489124,tacos,Tacos,1
"Kiss Pizza & Deli",38,3.0,"609 S Broadway",,"Los Angeles",CA,90014,https://www.yelp.com/biz/kiss-pizza-and-deli-los-angeles?adjust_creative=X5Beq4YFcWJGL3TdpUzGVg&utm_campaign=yelp_api_v3&utm_medium=api_v3_business_search&utm_source=X5Beq4YFcWJGL3TdpUzGVg,IhL2Hf4a5aq9AaC-DTx4pQ,34.04661,-118.25291,pizza,Pizza,1
BurritoBreak,11,5.0,"600 St Vincent Ct",,"Los Angeles",CA,90014,https://www.yelp.com/biz/burritobreak-los-angeles-7?adjust_creative=X5Beq4YFcWJGL3TdpUzGVg&utm_campaign=yelp_api_v3&utm_medium=api_v3_business_search&utm_source=X5Beq4YFcWJGL3TdpUzGVg,lBEPxx5e6xcGBoxHLW6ByA,34.046408560736516,-118.25307605867823,mexican,Mexican,1
"ShopWalk DTLA",1,5.0,"105 E 6th St",,"Los Angeles",CA,90014,https://www.yelp.com/biz/shopwalk-dtla-los-angeles?adjust_creative=X5Beq4YFcWJGL3TdpUzGVg&utm_campaign=yelp_api_v3&utm_medium=api_v3_business_search&utm_source=X5Beq4YFcWJGL3TdpUzGVg,qrTcf6S5-SI56NtFkpAOFg,34.0466319,-118.2507265,bakeries,Bakeries,1
"The Penthouse",1,5.0,"843 S Los Angeles St","Ste 500","Los Angeles",CA,90014,https://www.yelp.com/biz/the-penthouse-los-angeles?adjust_creative=X5Beq4YFcWJGL3TdpUzGVg&utm_campaign=yelp_api_v3&utm_medium=api_v3_business_search&utm_source=X5Beq4YFcWJGL3TdpUzGVg,pSQMjSmy-4TyxVlQaeAN5g,34.04137,-118.2537,newamerican,"American (New)",1
"New York City Deli",57,4.5,"843 S Los Angeles St",,"Los Angeles",CA,90014,https://www.yelp.com/biz/new-york-city-deli-los-angeles-2?adjust_creative=X5Beq4YFcWJGL3TdpUzGVg&utm_campaign=yelp_api_v3&utm_medium=api_v3_business_search&utm_source=X5Beq4YFcWJGL3TdpUzGVg,MbasbN0IBBfr-Wmcxfh-iw,34.04137,-118.2537,coffee,"Coffee & Tea",1
"Wow Bento & Roll",84,3.5,"710 S Hill St",,"Los Angeles",CA,90014,https://www.yelp.com/biz/wow-bento-and-roll-los-angeles?adjust_creative=X5Beq4YFcWJGL3TdpUzGVg&utm_campaign=yelp_api_v3&utm_medium=api_v3_business_search&utm_source=X5Beq4YFcWJGL3TdpUzGVg,JNeiIc1maDtBx-vQF-7n3Q,34.0455764,-118.254589,sushi,"Sushi Bars",2
"Wow Bowl",19,3.5,"712 S Hill St",,"Los Angeles",CA,90014,https://www.yelp.com/biz/wow-bowl-los-angeles?adjust_creative=X5Beq4YFcWJGL3TdpUzGVg&utm_campaign=yelp_api_v3&utm_medium=api_v3_business_search&utm_source=X5Beq4YFcWJGL3TdpUzGVg,sDwSEtZeYeHXBmAT6oY-wQ,34.0455539,-118.2546089,chinese,Chinese,2
"Le Cafe Bonjour",68,4.5,"640 S Hill St","Ste S-4","Los Angeles",CA,90014,https://www.yelp.com/biz/le-cafe-bonjour-los-angeles?adjust_creative=X5Beq4YFcWJGL3TdpUzGVg&utm_campaign=yelp_api_v3&utm_medium=api_v3_business_search&utm_source=X5Beq4YFcWJGL3TdpUzGVg,TxypalzG5A27x_TuoRX68w,34.04614,-118.25375,coffee,"Coffee & Tea",2
"Gusto Green",16,5.0,"718 S Hill St",,"Los Angeles",CA,90014,https://www.yelp.com/biz/gusto-green-los-angeles?adjust_creative=X5Beq4YFcWJGL3TdpUzGVg&utm_campaign=yelp_api_v3&utm_medium=api_v3_business_search&utm_source=X5Beq4YFcWJGL3TdpUzGVg,UmngZTc00wQjUq17bIp1QA,34.04527,-118.25477,newamerican,"American (New)",2
"Gil's Super Burger",13,4.0,"730 S Hill St",,"Los Angeles",CA,90014,https://www.yelp.com/biz/gils-super-burger-los-angeles?adjust_creative=X5Beq4YFcWJGL3TdpUzGVg&utm_campaign=yelp_api_v3&utm_medium=api_v3_business_search&utm_source=X5Beq4YFcWJGL3TdpUzGVg,49gkQSlwXMxbuctiUMMB-Q,34.0452106297016,-118.25505964458,burgers,Burgers,2
Benihibachi,21,3.0,"730 S Hill St",,"Los Angeles",CA,90014,https://www.yelp.com/biz/benihibachi-los-angeles?adjust_creative=X5Beq4YFcWJGL3TdpUzGVg&utm_campaign=yelp_api_v3&utm_medium=api_v3_business_search&utm_source=X5Beq4YFcWJGL3TdpUzGVg,jvzpGwFJr5Uok76yS_bhhQ,34.04506,-118.25496,japanese,Japanese,2
"St Vincent Deli",93,4.5,"650 S Hill St","Ste S2","Los Angeles",CA,90014,https://www.yelp.com/biz/st-vincent-deli-los-angeles?adjust_creative=X5Beq4YFcWJGL3TdpUzGVg&utm_campaign=yelp_api_v3&utm_medium=api_v3_business_search&utm_source=X5Beq4YFcWJGL3TdpUzGVg,T1YEHDA0psmOyM4HOXaZNw,34.0460968,-118.2540974,delis,Delis,2
"Amandine Patisserie Café DTLA",27,4.0,"650 S Hill St","Plaza 1, K-10","Los Angeles",CA,90014,https://www.yelp.com/biz/amandine-patisserie-caf%C3%A9-dtla-los-angeles-5?adjust_creative=X5Beq4YFcWJGL3TdpUzGVg&utm_campaign=yelp_api_v3&utm_medium=api_v3_business_search&utm_source=X5Beq4YFcWJGL3TdpUzGVg,lm21MuH1GjFzM7yXUILcBA,34.0460968,-118.2540974,bakeries,Bakeries,2
"Mediterranean Delight",79,4.5,"726 S Hill St",,"Los Angeles",CA,90014,https://www.yelp.com/biz/mediterranean-delight-los-angeles-2?adjust_creative=X5Beq4YFcWJGL3TdpUzGVg&utm_campaign=yelp_api_v3&utm_medium=api_v3_business_search&utm_source=X5Beq4YFcWJGL3TdpUzGVg,JgwivnG17XDFnMAGHUCpsw,34.0451803,-118.2549456,persian,Persian/Iranian,2
"Broadway Bar",644,3.5,"830 S Broadway",,"Los Angeles",CA,90014,https://www.yelp.com/biz/broadway-bar-los-angeles?adjust_creative=X5Beq4YFcWJGL3TdpUzGVg&utm_campaign=yelp_api_v3&utm_medium=api_v3_business_search&utm_source=X5Beq4YFcWJGL3TdpUzGVg,VtNi6gEdxAkhQf9VTRv8Pg,34.04278,-118.25512,danceclubs,"Dance Clubs",2
"Restaurante Iguala",1,2.0,"328 W 8th St",,"Los Angeles",CA,90014,https://www.yelp.com/biz/restaurante-iguala-los-angeles?adjust_creative=X5Beq4YFcWJGL3TdpUzGVg&utm_campaign=yelp_api_v3&utm_medium=api_v3_business_search&utm_source=X5Beq4YFcWJGL3TdpUzGVg,ph8rOqCK_0NP7lAA9-DBmw,34.0441795,-118.2553696,mexican,Mexican,2
"Emerson's Cafe",5,2.5,"860 S Los Angeles St",,"Los Angeles",CA,90014,https://www.yelp.com/biz/emersons-cafe-los-angeles-3?adjust_creative=X5Beq4YFcWJGL3TdpUzGVg&utm_campaign=yelp_api_v3&utm_medium=api_v3_business_search&utm_source=X5Beq4YFcWJGL3TdpUzGVg,hmaloy15n6VCU-lFMuPmtQ,34.040657043457,-118.253387451172,sandwiches,Sandwiches,2
"Mima's Mediterranean & Homemade Food",48,5.0,"628 Saint Vincent Ct",,"Los Angeles",CA,90014,https://www.yelp.com/biz/mimas-mediterranean-and-homemade-food-los-angeles-4?adjust_creative=X5Beq4YFcWJGL3TdpUzGVg&utm_campaign=yelp_api_v3&utm_medium=api_v3_business_search&utm_source=X5Beq4YFcWJGL3TdpUzGVg,AEPPyGiMb02mVEPLk2n8nQ,34.0457540398101,-118.253660565196,mediterranean,Mediterranean,2
"Market Restaurant",158,3.5,"862 S Los Angeles St",,"Los Angeles",CA,90014,https://www.yelp.com/biz/market-restaurant-los-angeles-2?adjust_creative=X5Beq4YFcWJGL3TdpUzGVg&utm_campaign=yelp_api_v3&utm_medium=api_v3_business_search&utm_source=X5Beq4YFcWJGL3TdpUzGVg,C0GLl-1tmRsGU9ixDgPQoQ,34.0409561261589,-118.253617286682,sandwiches,Sandwiches,2
"Sultan Chicken",364,4.0,"311 W 6th St",,"Los Angeles",CA,90014,https://www.yelp.com/biz/sultan-chicken-los-angeles-5?adjust_creative=X5Beq4YFcWJGL3TdpUzGVg&utm_campaign=yelp_api_v3&utm_medium=api_v3_business_search&utm_source=X5Beq4YFcWJGL3TdpUzGVg,vywBUQsQ6r3x8U8FkrPJAA,34.047011,-118.252336,mideastern,"Middle Eastern",2
"Poppy + Rose",2745,4.0,"765 Wall St",,"Los Angeles",CA,90014,https://www.yelp.com/biz/poppy-rose-los-angeles?adjust_creative=X5Beq4YFcWJGL3TdpUzGVg&utm_campaign=yelp_api_v3&utm_medium=api_v3_business_search&utm_source=X5Beq4YFcWJGL3TdpUzGVg,NlT-6hFP0_6hPo36AW2lIA,34.04067,-118.2500946,breakfast_brunch,"Breakfast & Brunch",2
"Kabab & More",132,4.5,"663 S Hill St","Ste M105","Los Angeles",CA,90014,https://www.yelp.com/biz/kabab-and-more-los-angeles-2?adjust_creative=X5Beq4YFcWJGL3TdpUzGVg&utm_campaign=yelp_api_v3&utm_medium=api_v3_business_search&utm_source=X5Beq4YFcWJGL3TdpUzGVg,JxUG-uHor8dwUGNfvW5MaQ,34.0463373,-118.2542688,persian,Persian/Iranian,2
"Salt N' Peppa",158,4.5,"632 S Hill St",,"Los Angeles",CA,90014,https://www.yelp.com/biz/salt-n-peppa-los-angeles-2?adjust_creative=X5Beq4YFcWJGL3TdpUzGVg&utm_campaign=yelp_api_v3&utm_medium=api_v3_business_search&utm_source=X5Beq4YFcWJGL3TdpUzGVg,nUfs4U4kwfqtj13f3dop8w,34.0466890113884,-118.253659875339,burgers,Burgers,2
"Taco House",15,4.5,"827 Santee St",,"Los Angeles",CA,90014,https://www.yelp.com/biz/taco-house-los-angeles-5?adjust_creative=X5Beq4YFcWJGL3TdpUzGVg&utm_campaign=yelp_api_v3&utm_medium=api_v3_business_search&utm_source=X5Beq4YFcWJGL3TdpUzGVg,0RN6PEh510o70c5tfI555w,34.0405454,-118.25285,mexican,Mexican,2
"Doña Inez",105,4.5,"847 Santee St",,"Los Angeles",CA,90014,https://www.yelp.com/biz/do%C3%B1a-inez-los-angeles-4?adjust_creative=X5Beq4YFcWJGL3TdpUzGVg&utm_campaign=yelp_api_v3&utm_medium=api_v3_business_search&utm_source=X5Beq4YFcWJGL3TdpUzGVg,AqiNo_WDzbxgW6s2SscG5g,34.0408258,-118.2525627,mexican,Mexican,2
Pressed,171,4.5,"860 S Los Angeles St",,"Los Angeles",CA,90014,https://www.yelp.com/biz/pressed-los-angeles-2?adjust_creative=X5Beq4YFcWJGL3TdpUzGVg&utm_campaign=yelp_api_v3&utm_medium=api_v3_business_search&utm_source=X5Beq4YFcWJGL3TdpUzGVg,KMXSFN3jL35h0uBzO6KQog,34.040779,-118.253618,juicebars,"Juice Bars & Smoothies",2
"Massis Restaurant",4,2.0,"655 S Hill St",,"Los Angeles",CA,90014,https://www.yelp.com/biz/massis-restaurant-los-angeles?adjust_creative=X5Beq4YFcWJGL3TdpUzGVg&utm_campaign=yelp_api_v3&utm_medium=api_v3_business_search&utm_source=X5Beq4YFcWJGL3TdpUzGVg,ehesg1w9-2MmKgOAXKPP8w,34.046382,-118.2542218,newamerican,"American (New)",2
"Z Falafel",54,4.0,"725 S Hill St",,"Los Angeles",CA,90014,https://www.yelp.com/biz/z-falafel-los-angeles-5?adjust_creative=X5Beq4YFcWJGL3TdpUzGVg&utm_campaign=yelp_api_v3&utm_medium=api_v3_business_search&utm_source=X5Beq4YFcWJGL3TdpUzGVg,gCxwL1pAJDJkAylbfMKylQ,34.045356359779284,-118.2552948,falafel,Falafel,2
Sausageasters,1,5.0,"764 Wall St",,"Los Angeles",CA,90014,https://www.yelp.com/biz/sausageasters-los-angeles?adjust_creative=X5Beq4YFcWJGL3TdpUzGVg&utm_campaign=yelp_api_v3&utm_medium=api_v3_business_search&utm_source=X5Beq4YFcWJGL3TdpUzGVg,8VEEAvnVG_IZkFr-fg8VRg,34.04023,-118.24982,streetvendors,"Street Vendors",2
"Lalos No 2",4,4.0,"400 E 7th St",,"Los Angeles",CA,90014,https://www.yelp.com/biz/lalos-no-2-los-angeles?adjust_creative=X5Beq4YFcWJGL3TdpUzGVg&utm_campaign=yelp_api_v3&utm_medium=api_v3_business_search&utm_source=X5Beq4YFcWJGL3TdpUzGVg,RcNWQ6cjEeSVQ2Ytd2XLRg,34.04158,-118.24856,mexican,Mexican,2
"Petite Peso",81,4.5,"419 W 7th St",,"Los Angeles",CA,90014,https://www.yelp.com/biz/petite-peso-los-angeles?adjust_creative=X5Beq4YFcWJGL3TdpUzGVg&utm_campaign=yelp_api_v3&utm_medium=api_v3_business_search&utm_source=X5Beq4YFcWJGL3TdpUzGVg,vb1-f0AzBYJOqKCFk4dUHA,34.046372,-118.254744,filipino,Filipino,2
"Krispy Rice",83,2.0,"852 S Broadway","Ste 100","Los Angeles",CA,90014,https://www.yelp.com/biz/krispy-rice-los-angeles-32?adjust_creative=X5Beq4YFcWJGL3TdpUzGVg&utm_campaign=yelp_api_v3&utm_medium=api_v3_business_search&utm_source=X5Beq4YFcWJGL3TdpUzGVg,-WAkwwEGFmar6JCnUZvDvg,34.042429,-118.255734,sushi,"Sushi Bars",2
"Umami Burger",1333,3.5,"852 S Broadway",,"Los Angeles",CA,90014,https://www.yelp.com/biz/umami-burger-los-angeles-36?adjust_creative=X5Beq4YFcWJGL3TdpUzGVg&utm_campaign=yelp_api_v3&utm_medium=api_v3_business_search&utm_source=X5Beq4YFcWJGL3TdpUzGVg,tP4_QWHnfoa6U8TO0r_REA,34.0423915,-118.2557883,burgers,Burgers,2
"Krispy Rice",4,2.0,"852 S. Broadway",,"Los Angeles",CA,90014,https://www.yelp.com/biz/krispy-rice-los-angeles-21?adjust_creative=X5Beq4YFcWJGL3TdpUzGVg&utm_campaign=yelp_api_v3&utm_medium=api_v3_business_search&utm_source=X5Beq4YFcWJGL3TdpUzGVg,5bKj2quMkyDNyhovV1hC4Q,34.04246,-118.2557,sushi,"Sushi Bars",2
"Umami Burger",3,2.0,"852 S. Broadway",,"Los Angeles",CA,90014,https://www.yelp.com/biz/umami-burger-los-angeles-43?adjust_creative=X5Beq4YFcWJGL3TdpUzGVg&utm_campaign=yelp_api_v3&utm_medium=api_v3_business_search&utm_source=X5Beq4YFcWJGL3TdpUzGVg,oMtnhVYWjc21wHajaXqqhA,34.04246,-118.2557,newamerican,"American (New)",2
"Sam's Crispy Chicken",5,1.0,"852 S Broadway",,"Los Angeles",CA,90014,https://www.yelp.com/biz/sams-crispy-chicken-los-angeles-23?adjust_creative=X5Beq4YFcWJGL3TdpUzGVg&utm_campaign=yelp_api_v3&utm_medium=api_v3_business_search&utm_source=X5Beq4YFcWJGL3TdpUzGVg,Vj2x1ZwU8nQzNvUo0V6zXw,34.042429,-118.255734,chickenshop,"Chicken Shop",2
"Plant Nation",13,3.0,"852 S Broadway","Ste A","Los Angeles",CA,90014,https://www.yelp.com/biz/plant-nation-los-angeles-12?adjust_creative=X5Beq4YFcWJGL3TdpUzGVg&utm_campaign=yelp_api_v3&utm_medium=api_v3_business_search&utm_source=X5Beq4YFcWJGL3TdpUzGVg,2uadR0Fq54HvRjzN-n_EyQ,34.042429,-118.255734,burgers,Burgers,2
"Installation Coffee",87,5.0,"421 W 7th St",,"Los Angeles",CA,90014,https://www.yelp.com/biz/installation-coffee-los-angeles?adjust_creative=X5Beq4YFcWJGL3TdpUzGVg&utm_campaign=yelp_api_v3&utm_medium=api_v3_business_search&utm_source=X5Beq4YFcWJGL3TdpUzGVg,C4kO7SU6ghE3g6Gg4SsjGQ,34.04626,-118.25462,coffee,"Coffee & Tea",2
"Al Fresco Cafe",5,3.0,"625 S Hill St","Ste 68","Los Angeles",CA,90014,https://www.yelp.com/biz/al-fresco-cafe-los-angeles?adjust_creative=X5Beq4YFcWJGL3TdpUzGVg&utm_campaign=yelp_api_v3&utm_medium=api_v3_business_search&utm_source=X5Beq4YFcWJGL3TdpUzGVg,o6lKWsmrpeRxgmCON_qH8A,34.0469779968262,-118.253952026367,thai,Thai,2
"Rama Thai Cuisine",70,3.5,"625 S Hill St","Ste B68-69","Los Angeles",CA,90014,https://www.yelp.com/biz/rama-thai-cuisine-los-angeles?adjust_creative=X5Beq4YFcWJGL3TdpUzGVg&utm_campaign=yelp_api_v3&utm_medium=api_v3_business_search&utm_source=X5Beq4YFcWJGL3TdpUzGVg,UAcTDhOKB7Gya2G8uWhQbA,34.04698,-118.25395,thai,Thai,2
"Paris Baguette",113,4.0,"404 W 8th St",,"Los Angeles",CA,90014,https://www.yelp.com/biz/paris-baguette-los-angeles-6?adjust_creative=X5Beq4YFcWJGL3TdpUzGVg&utm_campaign=yelp_api_v3&utm_medium=api_v3_business_search&utm_source=X5Beq4YFcWJGL3TdpUzGVg,gI9xnvIzc534qkUowRHRWg,34.0445230923091,-118.256024641983,cakeshop,"Patisserie/Cake Shop",2
"Cafe Deli",1,5.0,"607 S Hill St",,"Los Angeles",CA,90014,https://www.yelp.com/biz/cafe-deli-los-angeles?adjust_creative=X5Beq4YFcWJGL3TdpUzGVg&utm_campaign=yelp_api_v3&utm_medium=api_v3_business_search&utm_source=X5Beq4YFcWJGL3TdpUzGVg,SukIEh7Mh4UXiS9Zbbtokw,34.0472984,-118.2536011,delis,Delis,2
"Shake Shack",444,3.5,"400 W 8th St",,"Los Angeles",CA,90014,https://www.yelp.com/biz/shake-shack-los-angeles-7?adjust_creative=X5Beq4YFcWJGL3TdpUzGVg&utm_campaign=yelp_api_v3&utm_medium=api_v3_business_search&utm_source=X5Beq4YFcWJGL3TdpUzGVg,bqp_25iz8wcjcG2MrD3ZTQ,34.0444029,-118.2560307,burgers,Burgers,2
"Alan's Jugos",3,3.5,"305 E 9th St","Ste 131","Los Angeles",CA,90014,https://www.yelp.com/biz/alans-jugos-los-angeles?adjust_creative=X5Beq4YFcWJGL3TdpUzGVg&utm_campaign=yelp_api_v3&utm_medium=api_v3_business_search&utm_source=X5Beq4YFcWJGL3TdpUzGVg,JjAm8Nfn-wtrk8IRZ1Vbxw,34.04008,-118.25266,hotdogs,"Fast Food",2
"Santee Passage Food Hall",1,2.0,"700 -718  S Los Angeles St",,"Los Angeles",CA,90014,https://www.yelp.com/biz/santee-passage-food-hall-los-angeles?adjust_creative=X5Beq4YFcWJGL3TdpUzGVg&utm_campaign=yelp_api_v3&utm_medium=api_v3_business_search&utm_source=X5Beq4YFcWJGL3TdpUzGVg,AUkbWmALVMobXBF5_N3Mig,34.0454129,-118.2474019,food_court,"Food Court",2
"El Charrito",1,3.0,"830 Maple Ave",,"Los Angeles",CA,90014,https://www.yelp.com/biz/el-charrito-los-angeles-2?adjust_creative=X5Beq4YFcWJGL3TdpUzGVg&utm_campaign=yelp_api_v3&utm_medium=api_v3_business_search&utm_source=X5Beq4YFcWJGL3TdpUzGVg,rALinHU-RU5lS8CNAfavKg,34.03992595437612,-118.25194727629425,juicebars,"Juice Bars & Smoothies",2
"Albae Restaurant",2,2.5,"830 Maple Ave",,"Los Angeles",CA,90014,https://www.yelp.com/biz/albae-restaurant-los-angeles?adjust_creative=X5Beq4YFcWJGL3TdpUzGVg&utm_campaign=yelp_api_v3&utm_medium=api_v3_business_search&utm_source=X5Beq4YFcWJGL3TdpUzGVg,M8LM8vFpSSNuQHf64laWkg,34.0399133,-118.2520003,restaurants,Restaurants,2
"Presto Grill Restaurant",59,4.5,"830 Maple Ave",,"Los Angeles",CA,90014,https://www.yelp.com/biz/presto-grill-restaurant-los-angeles?adjust_creative=X5Beq4YFcWJGL3TdpUzGVg&utm_campaign=yelp_api_v3&utm_medium=api_v3_business_search&utm_source=X5Beq4YFcWJGL3TdpUzGVg,UUrmxcyCNkEVkTk5KiNX2g,34.0399133,-118.2520003,persian,Persian/Iranian,2
ilcaffe,238,4.0,"855 S Broadway",,"Los Angeles",CA,90014,https://www.yelp.com/biz/ilcaffe-los-angeles?adjust_creative=X5Beq4YFcWJGL3TdpUzGVg&utm_campaign=yelp_api_v3&utm_medium=api_v3_business_search&utm_source=X5Beq4YFcWJGL3TdpUzGVg,buX4WqNdoEsXJAQo0prbIQ,34.042601,-118.256167,coffee,"Coffee & Tea",2
"Calif. Chicken Cafe",197,4.5,"809 S Hill St",,"Los Angeles",CA,90014,https://www.yelp.com/biz/calif-chicken-cafe-los-angeles-3?adjust_creative=X5Beq4YFcWJGL3TdpUzGVg&utm_campaign=yelp_api_v3&utm_medium=api_v3_business_search&utm_source=X5Beq4YFcWJGL3TdpUzGVg,G_Z-MgQ1OL5GlkIJ6w_fFw,34.044336,-118.256204,salad,Salad,2
Shibumi,366,3.5,"815 South Hill St",,"Los Angeles",CA,90014,https://www.yelp.com/biz/shibumi-los-angeles?adjust_creative=X5Beq4YFcWJGL3TdpUzGVg&utm_campaign=yelp_api_v3&utm_medium=api_v3_business_search&utm_source=X5Beq4YFcWJGL3TdpUzGVg,rSxvppSRQYjNXpP6qknJ7g,34.04422,-118.256264,japanese,Japanese,2
"Los Angeles Athletic Club",263,4.0,"431 W 7th St",,"Los Angeles",CA,90014,https://www.yelp.com/biz/los-angeles-athletic-club-los-angeles?adjust_creative=X5Beq4YFcWJGL3TdpUzGVg&utm_campaign=yelp_api_v3&utm_medium=api_v3_business_search&utm_source=X5Beq4YFcWJGL3TdpUzGVg,mELv1mjoRERLLzns6XE01A,34.0466399,-118.25498,gyms,Gyms,2
"Los Angeles Athletic Club Hotel",93,4.0,"431 W 7th St",,"Los Angeles",CA,90014,https://www.yelp.com/biz/los-angeles-athletic-club-hotel-los-angeles?adjust_creative=X5Beq4YFcWJGL3TdpUzGVg&utm_campaign=yelp_api_v3&utm_medium=api_v3_business_search&utm_source=X5Beq4YFcWJGL3TdpUzGVg,1fGCTpM3zrcAgytrZA4mPQ,34.0466399,-118.25498,hotels,Hotels,2
"Golden Gopher",738,4.0,"417 W 8th St",,"Los Angeles",CA,90014,https://www.yelp.com/biz/golden-gopher-los-angeles?adjust_creative=X5Beq4YFcWJGL3TdpUzGVg&utm_campaign=yelp_api_v3&utm_medium=api_v3_business_search&utm_source=X5Beq4YFcWJGL3TdpUzGVg,C_gA0UppWBKtO_dZefXdGw,34.04501,-118.25619,lounges,Lounges,2
sweetgreen,122,4.0,"410 W 8th St",,"Los Angeles",CA,90014,https://www.yelp.com/biz/sweetgreen-los-angeles-16?adjust_creative=X5Beq4YFcWJGL3TdpUzGVg&utm_campaign=yelp_api_v3&utm_medium=api_v3_business_search&utm_source=X5Beq4YFcWJGL3TdpUzGVg,WC_c9RnwwXM_0KrgWVluOw,34.0446324,-118.256395,salad,Salad,2
"Cassell's Hamburgers Dtla",210,4.0,"421 W 8th St",,"Los Angeles",CA,90014,https://www.yelp.com/biz/cassells-hamburgers-dtla-los-angeles?adjust_creative=X5Beq4YFcWJGL3TdpUzGVg&utm_campaign=yelp_api_v3&utm_medium=api_v3_business_search&utm_source=X5Beq4YFcWJGL3TdpUzGVg,TNzKsP9RznnTy2KclvLq0w,34.044989,-118.2563626,burgers,Burgers,2
"Mochinut Downtown LA",86,4.5,"728 S Olive St",,"Los Angeles",CA,90014,https://www.yelp.com/biz/mochinut-downtown-la-los-angeles-2?adjust_creative=X5Beq4YFcWJGL3TdpUzGVg&utm_campaign=yelp_api_v3&utm_medium=api_v3_business_search&utm_source=X5Beq4YFcWJGL3TdpUzGVg,HPDk093qwYwCS0Lwkd6xJg,34.045699,-118.256084,donuts,Donuts,2
"Los Twins Tacos",3,4.5,"844 S Hill St",,"Los Angeles",CA,90014,https://www.yelp.com/biz/los-twins-tacos-los-angeles?adjust_creative=X5Beq4YFcWJGL3TdpUzGVg&utm_campaign=yelp_api_v3&utm_medium=api_v3_business_search&utm_source=X5Beq4YFcWJGL3TdpUzGVg,jtZyXp4_q3Gk91oGoN3j6A,34.04332,-118.25657,foodtrucks,"Food Trucks",2
"Ham & Eggs",98,4.0,"433 W 8th St",,"Los Angeles",CA,90014,https://www.yelp.com/biz/ham-and-eggs-los-angeles?adjust_creative=X5Beq4YFcWJGL3TdpUzGVg&utm_campaign=yelp_api_v3&utm_medium=api_v3_business_search&utm_source=X5Beq4YFcWJGL3TdpUzGVg,ME4RuijNXAUSc1zLgPQCPQ,34.0449522296747,-118.256492614746,bars,Bars,2
"Cafe Integral",21,4.0,"416 W 8th St",,"Los Angeles",CA,90014,https://www.yelp.com/biz/cafe-integral-los-angeles-3?adjust_creative=X5Beq4YFcWJGL3TdpUzGVg&utm_campaign=yelp_api_v3&utm_medium=api_v3_business_search&utm_source=X5Beq4YFcWJGL3TdpUzGVg,bCDpIOiX5kAt2lHFb1_B9g,34.04481,-118.25666,coffee,"Coffee & Tea",2
"Domino's Pizza",184,2.0,"740 S Olive St",,"Los Angeles",CA,90014,https://www.yelp.com/biz/dominos-pizza-los-angeles-36?adjust_creative=X5Beq4YFcWJGL3TdpUzGVg&utm_campaign=yelp_api_v3&utm_medium=api_v3_business_search&utm_source=X5Beq4YFcWJGL3TdpUzGVg,Wv88Uswq2Isjbk82_VZaaw,34.04566,-118.256187,pizza,Pizza,2
"Arda's Greek Cafe",187,3.5,"418 W 6th St",,"Los Angeles",CA,90014,https://www.yelp.com/biz/ardas-greek-cafe-los-angeles?adjust_creative=X5Beq4YFcWJGL3TdpUzGVg&utm_campaign=yelp_api_v3&utm_medium=api_v3_business_search&utm_source=X5Beq4YFcWJGL3TdpUzGVg,QVXM3e46ME3vc6Qiwgzbdw,34.04746,-118.25385,sandwiches,Sandwiches,2
Dunkin',137,3.0,"754 S Olive St",,"Los Angeles",CA,90014,https://www.yelp.com/biz/dunkin-los-angeles-4?adjust_creative=X5Beq4YFcWJGL3TdpUzGVg&utm_campaign=yelp_api_v3&utm_medium=api_v3_business_search&utm_source=X5Beq4YFcWJGL3TdpUzGVg,d00Qv4Tbj_WL7GkcDNmQgQ,34.0454997,-118.2563294,donuts,Donuts,2
"Colori Kitchen",1742,4.0,"429 W 8th St",,"Los Angeles",CA,90014,https://www.yelp.com/biz/colori-kitchen-los-angeles-2?adjust_creative=X5Beq4YFcWJGL3TdpUzGVg&utm_campaign=yelp_api_v3&utm_medium=api_v3_business_search&utm_source=X5Beq4YFcWJGL3TdpUzGVg,Kz8ZETLCLPNzzs9Tb4u1SQ,34.0451233,-118.2565153,italian,Italian,2
"Broken Shaker at Freehand Los Angeles",630,3.5,"416 West 8th St",,"Los Angeles",CA,90014,https://www.yelp.com/biz/broken-shaker-at-freehand-los-angeles-los-angeles?adjust_creative=X5Beq4YFcWJGL3TdpUzGVg&utm_campaign=yelp_api_v3&utm_medium=api_v3_business_search&utm_source=X5Beq4YFcWJGL3TdpUzGVg,U_r40GZhG6fUpbsFvnK2mg,34.044804,-118.25665,cocktailbars,"Cocktail Bars",1
"Rudolph's Bar & Tea",45,4.0,"416 W 8th St",,"Los Angeles",CA,90014,https://www.yelp.com/biz/rudolphs-bar-and-tea-los-angeles-4?adjust_creative=X5Beq4YFcWJGL3TdpUzGVg&utm_campaign=yelp_api_v3&utm_medium=api_v3_business_search&utm_source=X5Beq4YFcWJGL3TdpUzGVg,ziSrbe_50vOnQE4jI_Md9A,34.044814,-118.25666,lounges,Lounges,1
"The Exchange Restaurant",398,4.0,"416 West 8th St",,"Los Angeles",CA,90014,https://www.yelp.com/biz/the-exchange-restaurant-los-angeles-5?adjust_creative=X5Beq4YFcWJGL3TdpUzGVg&utm_campaign=yelp_api_v3&utm_medium=api_v3_business_search&utm_source=X5Beq4YFcWJGL3TdpUzGVg,8aDkzc7pF1sog5btfm2_Rg,34.044814,-118.25666,mideastern,"Middle Eastern",1
"Giannini Bar",15,4.5,"649 S Olive St",,"Los Angeles",CA,90014,https://www.yelp.com/biz/giannini-bar-los-angeles?adjust_creative=X5Beq4YFcWJGL3TdpUzGVg&utm_campaign=yelp_api_v3&utm_medium=api_v3_business_search&utm_source=X5Beq4YFcWJGL3TdpUzGVg,WsudglM0ybHgxebfnzaeGQ,34.04697,-118.25557,cocktailbars,"Cocktail Bars",1
7-Eleven,31,2.0,"500 W 7th St",,"Los Angeles",CA,90014,https://www.yelp.com/biz/7-eleven-los-angeles-10?adjust_creative=X5Beq4YFcWJGL3TdpUzGVg&utm_campaign=yelp_api_v3&utm_medium=api_v3_business_search&utm_source=X5Beq4YFcWJGL3TdpUzGVg,TAd5-0y6oBuTUxvm_NFHbQ,34.046625,-118.2558045,convenience,"Convenience Stores",1
"It's Boba Time",12,4.0,"508 W 7th St",,"Los Angeles",CA,90014,https://www.yelp.com/biz/its-boba-time-los-angeles-44?adjust_creative=X5Beq4YFcWJGL3TdpUzGVg&utm_campaign=yelp_api_v3&utm_medium=api_v3_business_search&utm_source=X5Beq4YFcWJGL3TdpUzGVg,WtCKdpvyXz9IapYieCyrBA,34.04669,-118.25596,coffee,"Coffee & Tea",1
"Rosemary Grill DTLA",9,5.0,"510 W 7th",,"Los Angeles",CA,90014,https://www.yelp.com/biz/rosemary-grill-dtla-los-angeles?adjust_creative=X5Beq4YFcWJGL3TdpUzGVg&utm_campaign=yelp_api_v3&utm_medium=api_v3_business_search&utm_source=X5Beq4YFcWJGL3TdpUzGVg,0-NjlgMEZ8t7kNZDCd2YfA,34.04654,-118.25596,mediterranean,Mediterranean,1
"Mocha Java Express",30,4.5,"623 S Olive St",,"Los Angeles",CA,90014,https://www.yelp.com/biz/mocha-java-express-los-angeles?adjust_creative=X5Beq4YFcWJGL3TdpUzGVg&utm_campaign=yelp_api_v3&utm_medium=api_v3_business_search&utm_source=X5Beq4YFcWJGL3TdpUzGVg,hykt-vcvi2thz8zXJ76gGg,34.0475843934349,-118.25480468525,coffee,"Coffee & Tea",1
"Claudia's Cafe",11,3.0,"208 W 6th St",,"Los Angeles",CA,90014,https://www.yelp.com/biz/claudias-cafe-los-angeles?adjust_creative=X5Beq4YFcWJGL3TdpUzGVg&utm_campaign=yelp_api_v3&utm_medium=api_v3_business_search&utm_source=X5Beq4YFcWJGL3TdpUzGVg,Ppsd4cLu06UC4roqJnBeuw,34.0472546821227,-118.255462646484,cafes,Cafes,1
"Gyu-Kaku Japanese BBQ",16,5.0,"514 W 7th St",,"Los Angeles",CA,90014,https://www.yelp.com/biz/gyu-kaku-japanese-bbq-los-angeles-2?adjust_creative=X5Beq4YFcWJGL3TdpUzGVg&utm_campaign=yelp_api_v3&utm_medium=api_v3_business_search&utm_source=X5Beq4YFcWJGL3TdpUzGVg,2hfm4Ngp_OpBj29tcUQzkQ,34.04663,-118.25612,japanese,Japanese,1
"Seven Grand",2159,4.0,"515 W 7th St","Fl 2","Los Angeles",CA,90014,https://www.yelp.com/biz/seven-grand-los-angeles?adjust_creative=X5Beq4YFcWJGL3TdpUzGVg&utm_campaign=yelp_api_v3&utm_medium=api_v3_business_search&utm_source=X5Beq4YFcWJGL3TdpUzGVg,Ioj1auWAriBDbepYdMnA4A,34.047132,-118.2558135,lounges,Lounges,1
"Bar Jackalope",112,4.5,"515 W 7th St","Fl 2","Los Angeles",CA,90014,https://www.yelp.com/biz/bar-jackalope-los-angeles?adjust_creative=X5Beq4YFcWJGL3TdpUzGVg&utm_campaign=yelp_api_v3&utm_medium=api_v3_business_search&utm_source=X5Beq4YFcWJGL3TdpUzGVg,f_niM_87GHy6mlYXgNV63Q,34.04711,-118.25581,whiskeybars,"Whiskey Bars",1
"V Los Angeles",261,4.0,"515 W 7th St",,"Los Angeles",CA,90014,https://www.yelp.com/biz/v-los-angeles-los-angeles?adjust_creative=X5Beq4YFcWJGL3TdpUzGVg&utm_campaign=yelp_api_v3&utm_medium=api_v3_business_search&utm_source=X5Beq4YFcWJGL3TdpUzGVg,qhPBVr8vv75EsQXB_B194Q,34.04704,-118.25593,cocktailbars,"Cocktail Bars",1
"H&H Brazilian Steakhouse",737,4.5,"518 W 7th St",,"Los Angeles",CA,90014,https://www.yelp.com/biz/h-and-h-brazilian-steakhouse-los-angeles?adjust_creative=X5Beq4YFcWJGL3TdpUzGVg&utm_campaign=yelp_api_v3&utm_medium=api_v3_business_search&utm_source=X5Beq4YFcWJGL3TdpUzGVg,KAG0aFy962JY38UeWI8pWQ,34.04665,-118.25616,brazilian,Brazilian,1
"Cicada Restaurant and Lounge",517,4.0,"617 S Olive St","Ste 100","Los Angeles",CA,90014,https://www.yelp.com/biz/cicada-restaurant-and-lounge-los-angeles?adjust_creative=X5Beq4YFcWJGL3TdpUzGVg&utm_campaign=yelp_api_v3&utm_medium=api_v3_business_search&utm_source=X5Beq4YFcWJGL3TdpUzGVg,kq6z27OhpoRoLLv4Fhkg8A,34.047835,-118.254873,italian,Italian,1
"Tocaya - DTLA",309,3.5,"801 S Olive St",#B,"Los Angeles",CA,90014,https://www.yelp.com/biz/tocaya-dtla-los-angeles-4?adjust_creative=X5Beq4YFcWJGL3TdpUzGVg&utm_campaign=yelp_api_v3&utm_medium=api_v3_business_search&utm_source=X5Beq4YFcWJGL3TdpUzGVg,28HzNE8LVC3KZ1jKvAc8hg,34.04511,-118.25734,mexican,Mexican,1
"Vurger Guyz",161,4.5,"788 S Grand Ave",,"Los Angeles",CA,90014,https://www.yelp.com/biz/vurger-guyz-los-angeles?adjust_creative=X5Beq4YFcWJGL3TdpUzGVg&utm_campaign=yelp_api_v3&utm_medium=api_v3_business_search&utm_source=X5Beq4YFcWJGL3TdpUzGVg,BBISsVQ-GMYr2emuWgtDPw,34.045704893996984,-118.25722925911467,vegan,Vegan,2
"Cognoscenti Coffee",148,4.0,"868 S Olive St",,"Los Angeles",CA,90014,https://www.yelp.com/biz/cognoscenti-coffee-los-angeles-5?adjust_creative=X5Beq4YFcWJGL3TdpUzGVg&utm_campaign=yelp_api_v3&utm_medium=api_v3_business_search&utm_source=X5Beq4YFcWJGL3TdpUzGVg,VO2KS6RxCDsKjbyO7jOfiA,34.0438777,-118.2578333,coffee,"Coffee & Tea",2
Starbucks,21,3.5,"801 S Olive St","Ste A","Los Angeles",CA,90014,https://www.yelp.com/biz/starbucks-los-angeles-517?adjust_creative=X5Beq4YFcWJGL3TdpUzGVg&utm_campaign=yelp_api_v3&utm_medium=api_v3_business_search&utm_source=X5Beq4YFcWJGL3TdpUzGVg,YDBVGBG9JmSWPJXk5WeMTg,34.044995,-118.257574,coffee,"Coffee & Tea",2
"Q Sushi",250,4.0,"521 W 7th St",,"Los Angeles",CA,90014,https://www.yelp.com/biz/q-sushi-los-angeles-4?adjust_creative=X5Beq4YFcWJGL3TdpUzGVg&utm_campaign=yelp_api_v3&utm_medium=api_v3_business_search&utm_source=X5Beq4YFcWJGL3TdpUzGVg,Q_-0tOSf192j3o-7Vmx4ag,34.047268,-118.256094,japanese,Japanese,2
"Ugo Cafe",49,4.0,"502 W 6th St",,"Los Angeles",CA,90014,https://www.yelp.com/biz/ugo-cafe-los-angeles?adjust_creative=X5Beq4YFcWJGL3TdpUzGVg&utm_campaign=yelp_api_v3&utm_medium=api_v3_business_search&utm_source=X5Beq4YFcWJGL3TdpUzGVg,jlg1-sKjLxJQGqLwCNmhag,34.0482064256947,-118.254698216915,cafes,Cafes,2
"Mamas Tacos",1,1.0,"700 S San Pedro St",,"Los Angeles",CA,90014,https://www.yelp.com/biz/mamas-tacos-los-angeles?adjust_creative=X5Beq4YFcWJGL3TdpUzGVg&utm_campaign=yelp_api_v3&utm_medium=api_v3_business_search&utm_source=X5Beq4YFcWJGL3TdpUzGVg,iy0D2iw9mwjNtoUezCHgMA,34.040341,-118.246746,mexican,Mexican,2
"Tender Greens",435,3.5,"505 W 6th St",,"Los Angeles",CA,90014,https://www.yelp.com/biz/tender-greens-los-angeles-16?adjust_creative=X5Beq4YFcWJGL3TdpUzGVg&utm_campaign=yelp_api_v3&utm_medium=api_v3_business_search&utm_source=X5Beq4YFcWJGL3TdpUzGVg,1V-opbw-NvOlbWwVLBNwYg,34.0484162,-118.2543612,salad,Salad,2
"QQ Cafe",42,4.5,"824 San Julian St","Unit 116","Los Angeles",CA,90014,https://www.yelp.com/biz/qq-cafe-los-angeles-2?adjust_creative=X5Beq4YFcWJGL3TdpUzGVg&utm_campaign=yelp_api_v3&utm_medium=api_v3_business_search&utm_source=X5Beq4YFcWJGL3TdpUzGVg,pZey4B40lVGW84-kUuCdOQ,34.0388489,-118.2500687,salad,Salad,2
"Seven Bar Lounge",351,3.0,"555 W 7th St",,"Los Angeles",CA,90014,https://www.yelp.com/biz/seven-bar-lounge-los-angeles?adjust_creative=X5Beq4YFcWJGL3TdpUzGVg&utm_campaign=yelp_api_v3&utm_medium=api_v3_business_search&utm_source=X5Beq4YFcWJGL3TdpUzGVg,r6D9Ds1C1RywKUDvj4CZjg,34.0473095580638,-118.256218045013,danceclubs,"Dance Clubs",2
"Los Angeles New York Pizza",118,3.0,"518 W 6th St",,"Los Angeles",CA,90014,https://www.yelp.com/biz/los-angeles-new-york-pizza-los-angeles?adjust_creative=X5Beq4YFcWJGL3TdpUzGVg&utm_campaign=yelp_api_v3&utm_medium=api_v3_business_search&utm_source=X5Beq4YFcWJGL3TdpUzGVg,1tZfrsndf4-9rcLfYWVvCQ,34.04821,-118.25496,pizza,Pizza,2
"Snack Shop",1,5.0,"523 W 6th St",,"Los Angeles",CA,90014,https://www.yelp.com/biz/snack-shop-los-angeles?adjust_creative=X5Beq4YFcWJGL3TdpUzGVg&utm_campaign=yelp_api_v3&utm_medium=api_v3_business_search&utm_source=X5Beq4YFcWJGL3TdpUzGVg,scNCIT8dweJwt5ls7wmQJQ,34.0487213134766,-118.254417419434,breakfast_brunch,"Breakfast & Brunch",2
"Veggie Grill",189,4.0,"523 W 6th St",,"Los Angeles",CA,90014,https://www.yelp.com/biz/veggie-grill-los-angeles-13?adjust_creative=X5Beq4YFcWJGL3TdpUzGVg&utm_campaign=yelp_api_v3&utm_medium=api_v3_business_search&utm_source=X5Beq4YFcWJGL3TdpUzGVg,cZkEPpsWxl9NTNrwZk-rdg,34.048661247739346,-118.25471643161129,vegan,Vegan,2
Starbucks,141,2.5,"523 West 6th St",,"Los Angeles",CA,90014,https://www.yelp.com/biz/starbucks-los-angeles-90?adjust_creative=X5Beq4YFcWJGL3TdpUzGVg&utm_campaign=yelp_api_v3&utm_medium=api_v3_business_search&utm_source=X5Beq4YFcWJGL3TdpUzGVg,40WrN2hfvAIt1zq2drV3hg,34.048757,-118.255078,coffee,"Coffee & Tea",2
"HRB DTLA",178,4.0,"529 W 6th St",,"Los Angeles",CA,90014,https://www.yelp.com/biz/hrb-dtla-los-angeles?adjust_creative=X5Beq4YFcWJGL3TdpUzGVg&utm_campaign=yelp_api_v3&utm_medium=api_v3_business_search&utm_source=X5Beq4YFcWJGL3TdpUzGVg,-2kcgcEpQL4YhBloldAQlg,34.048855946712884,-118.25501897990684,sushi,"Sushi Bars",2
"LA Craft Beer Crawl 2013",3,4.5,"613 S Grand Ave",,"Los Angeles",CA,90014,https://www.yelp.com/biz/la-craft-beer-crawl-2013-los-angeles?adjust_creative=X5Beq4YFcWJGL3TdpUzGVg&utm_campaign=yelp_api_v3&utm_medium=api_v3_business_search&utm_source=X5Beq4YFcWJGL3TdpUzGVg,71HR9jZT_EU7eR7kA15lvQ,34.0430450439453,-118.252250671387,beer_and_wine,"Beer, Wine & Spirits",2
"Aussie Pies And Sausages",16,5.0,"857 S San Pedro St.",,"Los Angeles",CA,90014,https://www.yelp.com/biz/aussie-pies-and-sausages-los-angeles-12?adjust_creative=X5Beq4YFcWJGL3TdpUzGVg&utm_campaign=yelp_api_v3&utm_medium=api_v3_business_search&utm_source=X5Beq4YFcWJGL3TdpUzGVg,ychqrVLgQ5dFb_OzekCvYw,34.03767,-118.25029,bakeries,Bakeries,2
