name,review_count,rating,address1,address2,city,state,zip_code,url,id,latitude,longitude,alias,title,price
"Canyon Coffee",22,4.5,"2108 Laurel Canyon Blvd",,"Los Angeles",CA,90046,https://www.yelp.com/biz/canyon-coffee-los-angeles-3?adjust_creative=X5Beq4YFcWJGL3TdpUzGVg&utm_campaign=yelp_api_v3&utm_medium=api_v3_business_search&utm_source=X5Beq4YFcWJGL3TdpUzGVg,0wSiC1JJuHG-aSoyYTcfqg,34.10897165238,-118.369713794441,coffee,"Coffee & Tea",NA
"Laurel Canyon Country Store",114,4.0,"2108 Laurel Canyon Blvd",,"Los Angeles",CA,90046,https://www.yelp.com/biz/laurel-canyon-country-store-los-angeles?adjust_creative=X5Beq4YFcWJGL3TdpUzGVg&utm_campaign=yelp_api_v3&utm_medium=api_v3_business_search&utm_source=X5Beq4YFcWJGL3TdpUzGVg,4GXi96oiTWPsX8r-CyGqXg,34.10906,-118.3697,grocery,Grocery,NA
Pace,1047,4.0,"2100 Laurel Canyon Blvd",,"Los Angeles",CA,90046,https://www.yelp.com/biz/pace-los-angeles-3?adjust_creative=X5Beq4YFcWJGL3TdpUzGVg&utm_campaign=yelp_api_v3&utm_medium=api_v3_business_search&utm_source=X5Beq4YFcWJGL3TdpUzGVg,LlaXbuPQBsRXjZFEx5Wkjw,34.10906,-118.3697,italian,Italian,NA
"Out Of Thin Air Bread",2,5.0,,,"Los Angeles",CA,90046,https://www.yelp.com/biz/out-of-thin-air-bread-los-angeles?adjust_creative=X5Beq4YFcWJGL3TdpUzGVg&utm_campaign=yelp_api_v3&utm_medium=api_v3_business_search&utm_source=X5Beq4YFcWJGL3TdpUzGVg,JqV1N4VtO_bC3oOLS_rgtA,34.10746544713674,-118.36528095383231,bakeries,Bakeries,NA
"West Hollywood Haunted Pub Crawl",2,5.0,"8225 Sunset Strip",,"West Hollywood",CA,90046,https://www.yelp.com/biz/west-hollywood-haunted-pub-crawl-west-hollywood?adjust_creative=X5Beq4YFcWJGL3TdpUzGVg&utm_campaign=yelp_api_v3&utm_medium=api_v3_business_search&utm_source=X5Beq4YFcWJGL3TdpUzGVg,dkTRvmnH0NT93a1KYcigsw,34.09779,-118.36872,pubs,Pubs,NA
"Pink Taco",1457,3.5,"8225 Sunset Blvd",,"Los Angeles",CA,90046,https://www.yelp.com/biz/pink-taco-los-angeles-2?adjust_creative=X5Beq4YFcWJGL3TdpUzGVg&utm_campaign=yelp_api_v3&utm_medium=api_v3_business_search&utm_source=X5Beq4YFcWJGL3TdpUzGVg,fCzDsLfL5yvlGragBwV40A,34.097805690153,-118.36887065166161,mexican,Mexican,NA
"Chateau Hanare",104,4.0,"8097 Selma Ave",,"Los Angeles",CA,90046,https://www.yelp.com/biz/chateau-hanare-los-angeles-3?adjust_creative=X5Beq4YFcWJGL3TdpUzGVg&utm_campaign=yelp_api_v3&utm_medium=api_v3_business_search&utm_source=X5Beq4YFcWJGL3TdpUzGVg,rH8K-ib5h-PtcI_k_lvweA,34.0982898623835,-118.366869228836,japanese,Japanese,NA
"Julio's Taqueria",1,1.0,"8200 W Sunset Blvd",,"Los Angeles",CA,90046,https://www.yelp.com/biz/julios-taqueria-los-angeles?adjust_creative=X5Beq4YFcWJGL3TdpUzGVg&utm_campaign=yelp_api_v3&utm_medium=api_v3_business_search&utm_source=X5Beq4YFcWJGL3TdpUzGVg,HzUfh1hMOcpxH190k98fkw,34.09772,-118.36769,mexican,Mexican,NA
"Pinches Tacos",893,4.0,"8200 W Sunset Blvd",,"Los Angeles",CA,90046,https://www.yelp.com/biz/pinches-tacos-los-angeles?adjust_creative=X5Beq4YFcWJGL3TdpUzGVg&utm_campaign=yelp_api_v3&utm_medium=api_v3_business_search&utm_source=X5Beq4YFcWJGL3TdpUzGVg,xVgz_F3gnbhyn_2goJ8vYQ,34.09772,-118.36769,mexican,Mexican,NA
"The Den on Sunset",731,4.0,"8226 W Sunset Blvd",,"West Hollywood",CA,90046,https://www.yelp.com/biz/the-den-on-sunset-west-hollywood?adjust_creative=X5Beq4YFcWJGL3TdpUzGVg&utm_campaign=yelp_api_v3&utm_medium=api_v3_business_search&utm_source=X5Beq4YFcWJGL3TdpUzGVg,HwOLTb9eSEFxT26pWwV7gg,34.097487,-118.368268,tradamerican,"American (Traditional)",NA
"Hyde Sunset Kitchen + Cocktails",385,3.0,"8117 Sunset Blvd",,"Los Angeles",CA,90046,https://www.yelp.com/biz/hyde-sunset-kitchen-cocktails-los-angeles-2?adjust_creative=X5Beq4YFcWJGL3TdpUzGVg&utm_campaign=yelp_api_v3&utm_medium=api_v3_business_search&utm_source=X5Beq4YFcWJGL3TdpUzGVg,dyL1vwCC4nGskkOtQoygTQ,34.0981949,-118.365991,newamerican,"American (New)",NA
"Krispy Rice",9,1.0,"8117 W Sunset Blvd",,"Los Angeles",CA,90046,https://www.yelp.com/biz/krispy-rice-los-angeles-33?adjust_creative=X5Beq4YFcWJGL3TdpUzGVg&utm_campaign=yelp_api_v3&utm_medium=api_v3_business_search&utm_source=X5Beq4YFcWJGL3TdpUzGVg,fOSGyJKpKM2eJ9tmQnlNgw,34.09817858001436,-118.3659634,sushi,"Sushi Bars",NA
"No Jealousy",149,4.0,"8117 Sunset Blvd",,"Los Angeles",CA,90046,https://www.yelp.com/biz/no-jealousy-los-angeles?adjust_creative=X5Beq4YFcWJGL3TdpUzGVg&utm_campaign=yelp_api_v3&utm_medium=api_v3_business_search&utm_source=X5Beq4YFcWJGL3TdpUzGVg,MykVkL3xelMry-IfY-4NEQ,34.09817599304268,-118.3659332875765,breakfast_brunch,"Breakfast & Brunch",NA
"The Naughty Pig",102,4.5,"8264 W Sunset Blvd",,"West Hollywood",CA,90046,https://www.yelp.com/biz/the-naughty-pig-west-hollywood-2?adjust_creative=X5Beq4YFcWJGL3TdpUzGVg&utm_campaign=yelp_api_v3&utm_medium=api_v3_business_search&utm_source=X5Beq4YFcWJGL3TdpUzGVg,_kMJy8xjFLhIxnAsEDOs_g,34.09655,-118.36964,sportsbars,"Sports Bars",NA
"The Sunset Trocadero Lounge",326,4.0,"8280 Sunset Blvd",,"Los Angeles",CA,90046,https://www.yelp.com/biz/the-sunset-trocadero-lounge-los-angeles?adjust_creative=X5Beq4YFcWJGL3TdpUzGVg&utm_campaign=yelp_api_v3&utm_medium=api_v3_business_search&utm_source=X5Beq4YFcWJGL3TdpUzGVg,1_GrigJIcmHNtU0yvAcw9A,34.0965954,-118.3698476,newamerican,"American (New)",NA
"Crescent City Cheesecakes",6,1.0,"8033 Sunset Blvd","Ste 480","Los Angeles",CA,90046,https://www.yelp.com/biz/crescent-city-cheesecakes-los-angeles-3?adjust_creative=X5Beq4YFcWJGL3TdpUzGVg&utm_campaign=yelp_api_v3&utm_medium=api_v3_business_search&utm_source=X5Beq4YFcWJGL3TdpUzGVg,1YvdaxvQqZT1kB0ju_Mtsw,34.0981737,-118.3649973,bakeries,Bakeries,NA
Starbucks,73,3.5,"8000 Sunset Blvd",B110,"Los Angeles",CA,90046,https://www.yelp.com/biz/starbucks-los-angeles-117?adjust_creative=X5Beq4YFcWJGL3TdpUzGVg&utm_campaign=yelp_api_v3&utm_medium=api_v3_business_search&utm_source=X5Beq4YFcWJGL3TdpUzGVg,68FHBVrGF6oe3AqZhGC_wQ,34.097707,-118.365178,coffee,"Coffee & Tea",NA
"Crave Cafe",35,3.0,"8000 Sunset Blvd","Fl 1, Unit A120","West Hollywood",CA,90046,https://www.yelp.com/biz/crave-cafe-west-hollywood-2?adjust_creative=X5Beq4YFcWJGL3TdpUzGVg&utm_campaign=yelp_api_v3&utm_medium=api_v3_business_search&utm_source=X5Beq4YFcWJGL3TdpUzGVg,p0Fw6W5QJQ7VWF9rm4rrVA,34.09746,-118.36513,cafes,Cafes,NA
"Jojo's Mediterranean Grill",83,4.5,"8000 Sunset Blvd","Ste B130","Los Angeles",CA,90046,https://www.yelp.com/biz/jojos-mediterranean-grill-los-angeles-2?adjust_creative=X5Beq4YFcWJGL3TdpUzGVg&utm_campaign=yelp_api_v3&utm_medium=api_v3_business_search&utm_source=X5Beq4YFcWJGL3TdpUzGVg,8NBdQJ-KhcyEc-wflRfG4A,34.09746,-118.36513,lebanese,Lebanese,NA
"Wokcano Asian Restaurant & Bar",526,3.5,"8000 W Sunset Blvd","Ste A110","Los Angeles",CA,90046,https://www.yelp.com/biz/wokcano-asian-restaurant-and-bar-los-angeles?adjust_creative=X5Beq4YFcWJGL3TdpUzGVg&utm_campaign=yelp_api_v3&utm_medium=api_v3_business_search&utm_source=X5Beq4YFcWJGL3TdpUzGVg,HPF9Qq-eHyrlLI3GcItQag,34.09746,-118.36513,chinese,Chinese,NA
"Tacos Way",226,3.0,"7980 Sunset Blvd",,"Los Angeles",CA,90046,https://www.yelp.com/biz/tacos-way-los-angeles-5?adjust_creative=X5Beq4YFcWJGL3TdpUzGVg&utm_campaign=yelp_api_v3&utm_medium=api_v3_business_search&utm_source=X5Beq4YFcWJGL3TdpUzGVg,I1wm3rZdZmQVn2i9NJJmRA,34.09761,-118.36421,tacos,Tacos,NA
"Shucks Oyster Company",17,4.5,"3250 Glendale Blvd",,"Los Angeles",CA,90046,https://www.yelp.com/biz/shucks-oyster-company-los-angeles?adjust_creative=X5Beq4YFcWJGL3TdpUzGVg&utm_campaign=yelp_api_v3&utm_medium=api_v3_business_search&utm_source=X5Beq4YFcWJGL3TdpUzGVg,3D6b11aoNDQs7Is_hihVXw,34.1147313,-118.3637264,catering,Caterers,NA
"My Daddy’s Recipes",4,5.0,,,Inglewood,CA,90046,https://www.yelp.com/biz/my-daddy-s-recipes-inglewood-2?adjust_creative=X5Beq4YFcWJGL3TdpUzGVg&utm_campaign=yelp_api_v3&utm_medium=api_v3_business_search&utm_source=X5Beq4YFcWJGL3TdpUzGVg,JXOcoyxAdKNEoVVLuWHpQQ,34.0098,-118.43186,catering,Caterers,NA
"Sunset Beach Fish & Chips",5,1.5,,,"Los Angeles",CA,90046,https://www.yelp.com/biz/sunset-beach-fish-and-chips-los-angeles-2?adjust_creative=X5Beq4YFcWJGL3TdpUzGVg&utm_campaign=yelp_api_v3&utm_medium=api_v3_business_search&utm_source=X5Beq4YFcWJGL3TdpUzGVg,JD_PUvQYLL3XAesJdBmDkA,34.09716033935547,-118.35924530029297,seafood,Seafood,NA
"Les Délices Du Four French Bakery",20,4.5,,,"West Hollywood",CA,90046,https://www.yelp.com/biz/les-d%C3%A9lices-du-four-french-bakery-west-hollywood?adjust_creative=X5Beq4YFcWJGL3TdpUzGVg&utm_campaign=yelp_api_v3&utm_medium=api_v3_business_search&utm_source=X5Beq4YFcWJGL3TdpUzGVg,sMz8IJ0l1BEMxzfwwBDyhA,34.09398,-118.36042,bakeries,Bakeries,NA
Kneady,18,5.0,"Delivery Only No Storefront",,"Los Angeles",CA,90046,https://www.yelp.com/biz/kneady-los-angeles?adjust_creative=X5Beq4YFcWJGL3TdpUzGVg&utm_campaign=yelp_api_v3&utm_medium=api_v3_business_search&utm_source=X5Beq4YFcWJGL3TdpUzGVg,oO76XpHIGnWxi2kXcC05zw,34.1147313,-118.3637264,desserts,Desserts,NA
Heartschallenger,4,5.0,,,"Los Angeles",CA,90046,https://www.yelp.com/biz/heartschallenger-los-angeles?adjust_creative=X5Beq4YFcWJGL3TdpUzGVg&utm_campaign=yelp_api_v3&utm_medium=api_v3_business_search&utm_source=X5Beq4YFcWJGL3TdpUzGVg,puepvja_Ej4HOHsCbkerPg,34.09821,-118.35239,icecream,"Ice Cream & Frozen Yogurt",NA
"Pizza 108",7,4.5,,,"West Hollywood",CA,90046,https://www.yelp.com/biz/pizza-108-west-hollywood-2?adjust_creative=X5Beq4YFcWJGL3TdpUzGVg&utm_campaign=yelp_api_v3&utm_medium=api_v3_business_search&utm_source=X5Beq4YFcWJGL3TdpUzGVg,eyLSR-niGuCqQ96ZU3v4yA,34.09431,-118.36154,pizza,Pizza,NA
"Maui Wowi Truck",3,4.0,,,"Los Angeles",CA,90046,https://www.yelp.com/biz/maui-wowi-truck-los-angeles?adjust_creative=X5Beq4YFcWJGL3TdpUzGVg&utm_campaign=yelp_api_v3&utm_medium=api_v3_business_search&utm_source=X5Beq4YFcWJGL3TdpUzGVg,PiqbTnibP1t_RiSeiuuBjA,34.09961,-118.35074,foodstands,"Food Stands",NA
"Dirty Dog Cart",2,4.0,,,"West Hollywood",CA,90046,https://www.yelp.com/biz/dirty-dog-cart-west-hollywood?adjust_creative=X5Beq4YFcWJGL3TdpUzGVg&utm_campaign=yelp_api_v3&utm_medium=api_v3_business_search&utm_source=X5Beq4YFcWJGL3TdpUzGVg,-YpFpXW2fRK126XoQ8TpwQ,34.09304,-118.36031,foodstands,"Food Stands",NA
"The Frankenstand",75,4.5,,,"Los Angeles",CA,90046,https://www.yelp.com/biz/the-frankenstand-los-angeles?adjust_creative=X5Beq4YFcWJGL3TdpUzGVg&utm_campaign=yelp_api_v3&utm_medium=api_v3_business_search&utm_source=X5Beq4YFcWJGL3TdpUzGVg,tmSYMmwzKP8at7RFarpvPg,34.09716033935547,-118.35924530029297,foodstands,"Food Stands",NA
"The Griddler Truck",10,4.0,,,"Los Angeles",CA,90046,https://www.yelp.com/biz/the-griddler-truck-los-angeles?adjust_creative=X5Beq4YFcWJGL3TdpUzGVg&utm_campaign=yelp_api_v3&utm_medium=api_v3_business_search&utm_source=X5Beq4YFcWJGL3TdpUzGVg,bc0rI5EUHTKv5x70BnA7VA,34.1147313,-118.3637264,foodtrucks,"Food Trucks",NA
"Popsicle Culture",3,4.0,,,"Los Angeles",CA,90046,https://www.yelp.com/biz/popsicle-culture-los-angeles?adjust_creative=X5Beq4YFcWJGL3TdpUzGVg&utm_campaign=yelp_api_v3&utm_medium=api_v3_business_search&utm_source=X5Beq4YFcWJGL3TdpUzGVg,2sejXbmQD8U8dCzo9QMDeg,34.1072387695312,-118.364761352539,desserts,Desserts,NA
"Nocturnal Eats",5,3.5,,,"Los Angeles",CA,90046,https://www.yelp.com/biz/nocturnal-eats-los-angeles-2?adjust_creative=X5Beq4YFcWJGL3TdpUzGVg&utm_campaign=yelp_api_v3&utm_medium=api_v3_business_search&utm_source=X5Beq4YFcWJGL3TdpUzGVg,Xs6CPZbAyxUtYdmmWL-M2Q,34.09716033935547,-118.35924530029297,fooddeliveryservices,"Food Delivery Services",NA
"Hunan Cafe",236,3.5,"7986 Sunset Blvd",,"Los Angeles",CA,90046,https://www.yelp.com/biz/hunan-cafe-los-angeles-2?adjust_creative=X5Beq4YFcWJGL3TdpUzGVg&utm_campaign=yelp_api_v3&utm_medium=api_v3_business_search&utm_source=X5Beq4YFcWJGL3TdpUzGVg,qqSsylr1Q1TXbf8uPK0EEA,34.09756,-118.36421,chinese,Chinese,NA
"Pizzeria Vivoli & Italian Grill",772,4.0,"7994 Sunset Blvd",,"Los Angeles",CA,90046,https://www.yelp.com/biz/pizzeria-vivoli-and-italian-grill-los-angeles?adjust_creative=X5Beq4YFcWJGL3TdpUzGVg&utm_campaign=yelp_api_v3&utm_medium=api_v3_business_search&utm_source=X5Beq4YFcWJGL3TdpUzGVg,pl0yOkZ2Ko9w8AF3zhqpaA,34.0974730226808,-118.364315223279,italian,Italian,NA
"Flavor of India",161,4.5,"7950 Sunset Blvd","Ste - 105","West Hollywood",CA,90046,https://www.yelp.com/biz/flavor-of-india-west-hollywood-4?adjust_creative=X5Beq4YFcWJGL3TdpUzGVg&utm_campaign=yelp_api_v3&utm_medium=api_v3_business_search&utm_source=X5Beq4YFcWJGL3TdpUzGVg,NC5jKdkiE_B0KghBiVxiuQ,34.09780472153553,-118.36328393489765,indpak,Indian,NA
Starbucks,13,3.5,"7915 Sunset Blvd",,"Los Angeles",CA,90046,https://www.yelp.com/biz/starbucks-los-angeles-535?adjust_creative=X5Beq4YFcWJGL3TdpUzGVg&utm_campaign=yelp_api_v3&utm_medium=api_v3_business_search&utm_source=X5Beq4YFcWJGL3TdpUzGVg,XyRICVN_iVU_aUVmjGJGHQ,34.098228,-118.362438,coffee,"Coffee & Tea",NA
"Veggie Grill",14,4.0,"7917 Sunset Blvd",,"Los Angeles",CA,90046,https://www.yelp.com/biz/veggie-grill-los-angeles-19?adjust_creative=X5Beq4YFcWJGL3TdpUzGVg&utm_campaign=yelp_api_v3&utm_medium=api_v3_business_search&utm_source=X5Beq4YFcWJGL3TdpUzGVg,voSKIBnmZmCRLc81ZyQT4w,34.0982362,-118.36236742184326,vegan,Vegan,2
"Laurel Avenue Park",5,2.5,"1343 N Laurel Ave",,"West Hollywood",CA,90046,https://www.yelp.com/biz/laurel-avenue-park-west-hollywood?adjust_creative=X5Beq4YFcWJGL3TdpUzGVg&utm_campaign=yelp_api_v3&utm_medium=api_v3_business_search&utm_source=X5Beq4YFcWJGL3TdpUzGVg,8NAIT1096NIeHM4xllDd1Q,34.095592,-118.364868,parks,Parks,2
"Zankou Chicken",460,4.0,"7851 W Sunset Blvd",,"Los Angeles",CA,90046,https://www.yelp.com/biz/zankou-chicken-los-angeles-13?adjust_creative=X5Beq4YFcWJGL3TdpUzGVg&utm_campaign=yelp_api_v3&utm_medium=api_v3_business_search&utm_source=X5Beq4YFcWJGL3TdpUzGVg,NGGgYVRjIoDJvr1z0RtJ8Q,34.098337,-118.360646,armenian,Armenian,2
"Pace Joint",146,4.0,"7860 Sunset Blvd",,"Los Angeles",CA,90046,https://www.yelp.com/biz/pace-joint-los-angeles-2?adjust_creative=X5Beq4YFcWJGL3TdpUzGVg&utm_campaign=yelp_api_v3&utm_medium=api_v3_business_search&utm_source=X5Beq4YFcWJGL3TdpUzGVg,eQ1fdfyY6K-m1NWAOC6VrQ,34.0978,-118.36087,pizza,Pizza,2
"Sam's on Sunset",354,3.5,"7864 W Sunset Blvd",,"Los Angeles",CA,90046,https://www.yelp.com/biz/sams-on-sunset-los-angeles?adjust_creative=X5Beq4YFcWJGL3TdpUzGVg&utm_campaign=yelp_api_v3&utm_medium=api_v3_business_search&utm_source=X5Beq4YFcWJGL3TdpUzGVg,QFb7n7gi6u1b8bmHpi0f6w,34.0979151,-118.3608299,bagels,Bagels,2
"Trebek Open Space",16,4.0,"Nichols Canyon Rd",,"Los Angeles",CA,90046,https://www.yelp.com/biz/trebek-open-space-los-angeles?adjust_creative=X5Beq4YFcWJGL3TdpUzGVg&utm_campaign=yelp_api_v3&utm_medium=api_v3_business_search&utm_source=X5Beq4YFcWJGL3TdpUzGVg,ENM1By9SyZN4nJyweRUyKg,34.11596,-118.35999,hiking,Hiking,2
"Enigma Coffee",95,4.5,"7801 W Sunset Blvd",,"Los Angeles",CA,90046,https://www.yelp.com/biz/enigma-coffee-los-angeles?adjust_creative=X5Beq4YFcWJGL3TdpUzGVg&utm_campaign=yelp_api_v3&utm_medium=api_v3_business_search&utm_source=X5Beq4YFcWJGL3TdpUzGVg,nhLoB0sORs3FWizIkI6WxQ,34.09831,-118.35969,coffee,"Coffee & Tea",2
"Greenhouse Juice",7,5.0,"7962 Fountain Ave",,"West Hollywood",CA,90046,https://www.yelp.com/biz/greenhouse-juice-west-hollywood?adjust_creative=X5Beq4YFcWJGL3TdpUzGVg&utm_campaign=yelp_api_v3&utm_medium=api_v3_business_search&utm_source=X5Beq4YFcWJGL3TdpUzGVg,Vl1j7gfOgg8NcFaWGMQyOQ,34.09438692529817,-118.3636692569164,coffee,"Coffee & Tea",2
"Chipotle Mexican Grill",224,3.0,"7660 W Sunset Blvd",,"Los Angeles",CA,90046,https://www.yelp.com/biz/chipotle-mexican-grill-los-angeles-30?adjust_creative=X5Beq4YFcWJGL3TdpUzGVg&utm_campaign=yelp_api_v3&utm_medium=api_v3_business_search&utm_source=X5Beq4YFcWJGL3TdpUzGVg,qCOuHfnkqrNqsOkPxaWBAg,34.0978471129027,-118.3568997,mexican,Mexican,2
"The Riad",2,3.0,"1510 N Stanley Ave",,"Los Angeles",CA,90046,https://www.yelp.com/biz/the-riad-los-angeles-4?adjust_creative=X5Beq4YFcWJGL3TdpUzGVg&utm_campaign=yelp_api_v3&utm_medium=api_v3_business_search&utm_source=X5Beq4YFcWJGL3TdpUzGVg,789mhvA927W9bRlLM1rE4g,34.09848,-118.35597,lounges,Lounges,2
Members,2,1.0,"1510 N Stanley Ave",,"Los Angeles",CA,90046,https://www.yelp.com/biz/members-los-angeles?adjust_creative=X5Beq4YFcWJGL3TdpUzGVg&utm_campaign=yelp_api_v3&utm_medium=api_v3_business_search&utm_source=X5Beq4YFcWJGL3TdpUzGVg,znzq-PTVWLRUurnoftENiw,34.09848,-118.35597,hookah_bars,"Hookah Bars",2
"Akuma  Ramen & Sushi Bar",406,4.5,"8267 Santa Monica Blvd",,"West Hollywood",CA,90046,https://www.yelp.com/biz/akuma-ramen-and-sushi-bar-west-hollywood-2?adjust_creative=X5Beq4YFcWJGL3TdpUzGVg&utm_campaign=yelp_api_v3&utm_medium=api_v3_business_search&utm_source=X5Beq4YFcWJGL3TdpUzGVg,7_gQo28ka0qV0bA56TIdqA,34.0909888248623,-118.369500403704,sushi,"Sushi Bars",2
Norah,752,4.0,"8279 Santa Monica Blvd",,"West Hollywood",CA,90046,https://www.yelp.com/biz/norah-west-hollywood?adjust_creative=X5Beq4YFcWJGL3TdpUzGVg&utm_campaign=yelp_api_v3&utm_medium=api_v3_business_search&utm_source=X5Beq4YFcWJGL3TdpUzGVg,i7DTjyOXM4sSHNzU9Ghvuw,34.0908388,-118.3697416,newamerican,"American (New)",2
Conservatory,409,4.0,"8289 Santa Monica Blvd",,"West Hollywood",CA,90046,https://www.yelp.com/biz/conservatory-west-hollywood-3?adjust_creative=X5Beq4YFcWJGL3TdpUzGVg&utm_campaign=yelp_api_v3&utm_medium=api_v3_business_search&utm_source=X5Beq4YFcWJGL3TdpUzGVg,4hHIJ0L7Txn6sqs9Ex2-JA,34.0908288,-118.3700082,newamerican,"American (New)",NA
"Curry Kingdom",74,5.0,"8281 Santa Monica Blvd",,"West Hollywood",CA,90046,https://www.yelp.com/biz/curry-kingdom-west-hollywood?adjust_creative=X5Beq4YFcWJGL3TdpUzGVg&utm_campaign=yelp_api_v3&utm_medium=api_v3_business_search&utm_source=X5Beq4YFcWJGL3TdpUzGVg,lenDuYfoqArhDMyy7ZiSmg,34.090907,-118.369909,indpak,Indian,NA
LOVE,170,5.0,"8205 Santa Monica Blvd","Unit  5, 6","West Hollywood",CA,90046,https://www.yelp.com/biz/love-west-hollywood?adjust_creative=X5Beq4YFcWJGL3TdpUzGVg&utm_campaign=yelp_api_v3&utm_medium=api_v3_business_search&utm_source=X5Beq4YFcWJGL3TdpUzGVg,pl5_OLDDXMOdJneeTya48A,34.091105,-118.367844,vegan,Vegan,NA
"Go Get Em Tiger",44,3.5,"8253 Santa Monica Blvd",,"West Hollywood",CA,90046,https://www.yelp.com/biz/go-get-em-tiger-west-hollywood?adjust_creative=X5Beq4YFcWJGL3TdpUzGVg&utm_campaign=yelp_api_v3&utm_medium=api_v3_business_search&utm_source=X5Beq4YFcWJGL3TdpUzGVg,C0P0VKlByvawrxyBPl-u8A,34.090959,-118.369245,coffee,"Coffee & Tea",NA
Horses,46,4.0,"7617 Sunset Blvd",,"Los Angeles",CA,90046,https://www.yelp.com/biz/horses-los-angeles?adjust_creative=X5Beq4YFcWJGL3TdpUzGVg&utm_campaign=yelp_api_v3&utm_medium=api_v3_business_search&utm_source=X5Beq4YFcWJGL3TdpUzGVg,ifjQzwvW_cW8u88GzMaUWg,34.09839,-118.35565,bars,Bars,NA
"Tasty Donuts and Cafe",164,4.0,"8205 Santa Monica Blvd","Ste 8","West Hollywood",CA,90046,https://www.yelp.com/biz/tasty-donuts-and-cafe-west-hollywood?adjust_creative=X5Beq4YFcWJGL3TdpUzGVg&utm_campaign=yelp_api_v3&utm_medium=api_v3_business_search&utm_source=X5Beq4YFcWJGL3TdpUzGVg,lH5_ACeOSEOKdVMWeHnZcw,34.091073,-118.367701,donuts,Donuts,NA
"Connie & Ted's",2004,4.0,"8171 Santa Monica Blvd",,"West Hollywood",CA,90046,https://www.yelp.com/biz/connie-and-teds-west-hollywood-2?adjust_creative=X5Beq4YFcWJGL3TdpUzGVg&utm_campaign=yelp_api_v3&utm_medium=api_v3_business_search&utm_source=X5Beq4YFcWJGL3TdpUzGVg,FZVggU2nUN7YnCiZfpWjyw,34.091159,-118.367216,seafood,Seafood,NA
"Yogurtland West Hollywood",43,4.0,"8205 Santa Monica Blvd",#1,"West Hollywood",CA,90046,https://www.yelp.com/biz/yogurtland-west-hollywood-west-hollywood?adjust_creative=X5Beq4YFcWJGL3TdpUzGVg&utm_campaign=yelp_api_v3&utm_medium=api_v3_business_search&utm_source=X5Beq4YFcWJGL3TdpUzGVg,lvqjG2cpDa2pKou2RrmDhw,34.090928,-118.367826,icecream,"Ice Cream & Frozen Yogurt",NA
Traktir,483,4.0,"8151 Santa Monica Blvd",,"West Hollywood",CA,90046,https://www.yelp.com/biz/traktir-west-hollywood?adjust_creative=X5Beq4YFcWJGL3TdpUzGVg&utm_campaign=yelp_api_v3&utm_medium=api_v3_business_search&utm_source=X5Beq4YFcWJGL3TdpUzGVg,hHRvhsRKOd50wVBt7JvpaQ,34.09109,-118.36664,russian,Russian,NA
"Hamburger Mary's",1630,3.5,"8288 Santa Monica Blvd",,"West Hollywood",CA,90046,https://www.yelp.com/biz/hamburger-marys-west-hollywood?adjust_creative=X5Beq4YFcWJGL3TdpUzGVg&utm_campaign=yelp_api_v3&utm_medium=api_v3_business_search&utm_source=X5Beq4YFcWJGL3TdpUzGVg,Vg_g_xJwrNZypGaTXRVmyA,34.0905573,-118.3700477,newamerican,"American (New)",NA
"The Indian Kitchen",442,4.0,"8165 Santa Monica Blvd",,"West Hollywood",CA,90046,https://www.yelp.com/biz/the-indian-kitchen-west-hollywood-2?adjust_creative=X5Beq4YFcWJGL3TdpUzGVg&utm_campaign=yelp_api_v3&utm_medium=api_v3_business_search&utm_source=X5Beq4YFcWJGL3TdpUzGVg,ur-joWvA_fPN_oxW50VwCQ,34.09085817,-118.36708067,indpak,Indian,NA
"Pura Vita Pizzeria",58,5.0,"8276 Santa Monica Blvd",,"West Hollywood",CA,90046,https://www.yelp.com/biz/pura-vita-pizzeria-west-hollywood-2?adjust_creative=X5Beq4YFcWJGL3TdpUzGVg&utm_campaign=yelp_api_v3&utm_medium=api_v3_business_search&utm_source=X5Beq4YFcWJGL3TdpUzGVg,YUXD9K9ksyoiw2utIyFSDQ,34.090495,-118.3696017,pizza,Pizza,NA
"Hikari Sushi",259,4.5,"8163 Santa Monica Blvd",,"West Hollywood",CA,90046,https://www.yelp.com/biz/hikari-sushi-west-hollywood?adjust_creative=X5Beq4YFcWJGL3TdpUzGVg&utm_campaign=yelp_api_v3&utm_medium=api_v3_business_search&utm_source=X5Beq4YFcWJGL3TdpUzGVg,QdiA38i8nLxGQx3t8BJAHg,34.09091633,-118.36691467,sushi,"Sushi Bars",NA
"Pura Vita",646,4.5,"8274 Santa Monica Blvd",,"West Hollywood",CA,90046,https://www.yelp.com/biz/pura-vita-west-hollywood-2?adjust_creative=X5Beq4YFcWJGL3TdpUzGVg&utm_campaign=yelp_api_v3&utm_medium=api_v3_business_search&utm_source=X5Beq4YFcWJGL3TdpUzGVg,_DiPHeKsR9Pzk-lrAiwv-Q,34.09044,-118.36967,italian,Italian,NA
7-Eleven,15,4.0,"7600 Sunset Blvd",,"Los Angeles",CA,90046,https://www.yelp.com/biz/7-eleven-los-angeles-114?adjust_creative=X5Beq4YFcWJGL3TdpUzGVg&utm_campaign=yelp_api_v3&utm_medium=api_v3_business_search&utm_source=X5Beq4YFcWJGL3TdpUzGVg,qbSNUGhs0OsKQ5FVN8jang,34.097686652702,-118.355232775211,convenience,"Convenience Stores",NA
"Marco's Trattoria",736,4.0,"8200 Santa Monica Blvd",,"West Hollywood",CA,90046,https://www.yelp.com/biz/marcos-trattoria-west-hollywood-3?adjust_creative=X5Beq4YFcWJGL3TdpUzGVg&utm_campaign=yelp_api_v3&utm_medium=api_v3_business_search&utm_source=X5Beq4YFcWJGL3TdpUzGVg,9uphDUTFfl9-n1KwSy2UNA,34.09048,-118.36716,italian,Italian,NA
"Miss Melbourne Coffee",86,4.5,"1051 Havenhurst Dr",,"West Hollywood",CA,90046,https://www.yelp.com/biz/miss-melbourne-coffee-west-hollywood?adjust_creative=X5Beq4YFcWJGL3TdpUzGVg&utm_campaign=yelp_api_v3&utm_medium=api_v3_business_search&utm_source=X5Beq4YFcWJGL3TdpUzGVg,VNpXTrFvR5PVA62SwUaeLg,34.09041317,-118.3670785,coffee,"Coffee & Tea",NA
"Laurel Canyon Dog Park",217,3.0,"8260 Mulholland Dr",,"Los Angeles",CA,90046,https://www.yelp.com/biz/laurel-canyon-dog-park-los-angeles?adjust_creative=X5Beq4YFcWJGL3TdpUzGVg&utm_campaign=yelp_api_v3&utm_medium=api_v3_business_search&utm_source=X5Beq4YFcWJGL3TdpUzGVg,CW4_XQULqk8E3eRo4dGvWg,34.1219052297351,-118.379235522841,dog_parks,"Dog Parks",NA
"Tu Madre - West Hollywood",541,4.0,"1111 N Hayworth Ave",,"West Hollywood",CA,90046,https://www.yelp.com/biz/tu-madre-west-hollywood-west-hollywood?adjust_creative=X5Beq4YFcWJGL3TdpUzGVg&utm_campaign=yelp_api_v3&utm_medium=api_v3_business_search&utm_source=X5Beq4YFcWJGL3TdpUzGVg,PLfZ1ACQRAC1bgOTzS5rBA,34.091274,-118.36317,mexican,Mexican,NA
Delilah,451,3.0,"7969 Santa Monica Blvd",,"West Hollywood",CA,90046,https://www.yelp.com/biz/delilah-west-hollywood?adjust_creative=X5Beq4YFcWJGL3TdpUzGVg&utm_campaign=yelp_api_v3&utm_medium=api_v3_business_search&utm_source=X5Beq4YFcWJGL3TdpUzGVg,PJPubcB4oEtsqwnpu8SSJQ,34.0909402,-118.3636093,newamerican,"American (New)",NA
"Bread Box Creative Bakery",1,3.0,"2447 Solar Dr",,"Los Angeles",CA,90046,https://www.yelp.com/biz/bread-box-creative-bakery-los-angeles?adjust_creative=X5Beq4YFcWJGL3TdpUzGVg&utm_campaign=yelp_api_v3&utm_medium=api_v3_business_search&utm_source=X5Beq4YFcWJGL3TdpUzGVg,zjPp4vayHHXr8RndEFN11Q,34.1158256530762,-118.355049133301,bakeries,Bakeries,NA
"Laurel Hardware",1685,3.5,"7984 Santa Monica Blvd",,"West Hollywood",CA,90046,https://www.yelp.com/biz/laurel-hardware-west-hollywood-2?adjust_creative=X5Beq4YFcWJGL3TdpUzGVg&utm_campaign=yelp_api_v3&utm_medium=api_v3_business_search&utm_source=X5Beq4YFcWJGL3TdpUzGVg,bZvzLXrCj8hya33di73d8Q,34.09063302507038,-118.36443325080704,newamerican,"American (New)",NA
Fubar,128,4.0,"7994 Santa Monica Blvd",,"West Hollywood",CA,90046,https://www.yelp.com/biz/fubar-west-hollywood?adjust_creative=X5Beq4YFcWJGL3TdpUzGVg&utm_campaign=yelp_api_v3&utm_medium=api_v3_business_search&utm_source=X5Beq4YFcWJGL3TdpUzGVg,pMl7cbzhsM3SU17D9SERiQ,34.09054,-118.36457,gaybars,"Gay Bars",NA
"The Rafters",1,5.0,"7994 Santa Monica Blvd",,"West Hollywood",CA,90046,https://www.yelp.com/biz/the-rafters-west-hollywood?adjust_creative=X5Beq4YFcWJGL3TdpUzGVg&utm_campaign=yelp_api_v3&utm_medium=api_v3_business_search&utm_source=X5Beq4YFcWJGL3TdpUzGVg,8AMnPve0k-hLtB2mmE_GmQ,34.090553,-118.364578,bars,Bars,NA
"Metztli Taqueria",11,5.0,"7953 Santa Monica Blvd",,"West Hollywood",CA,90046,https://www.yelp.com/biz/metztli-taqueria-west-hollywood-2?adjust_creative=X5Beq4YFcWJGL3TdpUzGVg&utm_campaign=yelp_api_v3&utm_medium=api_v3_business_search&utm_source=X5Beq4YFcWJGL3TdpUzGVg,IPb017U65V56piqOE1T12g,34.0909914,-118.3632242,tacos,Tacos,NA
"Employees Only",377,4.0,"7953 Santa Monica Blvd",,"West Hollywood",CA,90046,https://www.yelp.com/biz/employees-only-west-hollywood?adjust_creative=X5Beq4YFcWJGL3TdpUzGVg&utm_campaign=yelp_api_v3&utm_medium=api_v3_business_search&utm_source=X5Beq4YFcWJGL3TdpUzGVg,ALF79fQM2QhMfsBhwPATng,34.0910009082559,-118.363145592593,cocktailbars,"Cocktail Bars",NA
"Wonderland Wraps",5,2.0,"1504 N Sierra Bonita Blvd",,"Los Angeles",CA,90046,https://www.yelp.com/biz/wonderland-wraps-los-angeles?adjust_creative=X5Beq4YFcWJGL3TdpUzGVg&utm_campaign=yelp_api_v3&utm_medium=api_v3_business_search&utm_source=X5Beq4YFcWJGL3TdpUzGVg,YxK0LOMa8v6msTZkWXZRqA,34.098222,-118.3538051,wraps,Wraps,NA
"Taco Paradiso",4,2.0,"1504 N Sierra Bonita Blvd",,"Los Angeles",CA,90046,https://www.yelp.com/biz/taco-paradiso-los-angeles?adjust_creative=X5Beq4YFcWJGL3TdpUzGVg&utm_campaign=yelp_api_v3&utm_medium=api_v3_business_search&utm_source=X5Beq4YFcWJGL3TdpUzGVg,m7eLXWNrVqYB0gI7Uea8WQ,34.098222,-118.3538051,mexican,Mexican,NA
"Square Pizza",8,1.0,"1504 N Sierra Bonita Ave",,"Los Angeles",CA,90046,https://www.yelp.com/biz/square-pizza-los-angeles?adjust_creative=X5Beq4YFcWJGL3TdpUzGVg&utm_campaign=yelp_api_v3&utm_medium=api_v3_business_search&utm_source=X5Beq4YFcWJGL3TdpUzGVg,CNy_TgbgG5Qat10GVkhCrQ,34.098222,-118.3538051,pizza,Pizza,NA
"Chuck's Chicken & Waffles",3,1.0,"7533 W Sunset Blvd",,"Los Angeles",CA,90046,https://www.yelp.com/biz/chucks-chicken-and-waffles-los-angeles-3?adjust_creative=X5Beq4YFcWJGL3TdpUzGVg&utm_campaign=yelp_api_v3&utm_medium=api_v3_business_search&utm_source=X5Beq4YFcWJGL3TdpUzGVg,CNuWFfn8Xc7s6kKhIve2Sw,34.0982,-118.3537,fooddeliveryservices,"Food Delivery Services",NA
"The Breakfast Club",11,2.5,"7533 Sunset Blvd",,"West Hollywood",CA,90046,https://www.yelp.com/biz/the-breakfast-club-west-hollywood?adjust_creative=X5Beq4YFcWJGL3TdpUzGVg&utm_campaign=yelp_api_v3&utm_medium=api_v3_business_search&utm_source=X5Beq4YFcWJGL3TdpUzGVg,P4lDLZgFUDfByPsxZmPtHg,34.0981549,-118.3536219,breakfast_brunch,"Breakfast & Brunch",NA
"Hollywood Wraps",2,5.0,"7533 W Sunset Blvd",,"Los Angeles",CA,90046,https://www.yelp.com/biz/hollywood-wraps-los-angeles-2?adjust_creative=X5Beq4YFcWJGL3TdpUzGVg&utm_campaign=yelp_api_v3&utm_medium=api_v3_business_search&utm_source=X5Beq4YFcWJGL3TdpUzGVg,7iVSgggbiBDA_ItFj-6t5A,34.0982,-118.3537,fooddeliveryservices,"Food Delivery Services",NA
"Oscar's Pancake Bar",1,1.0,"7533 W Sunset Blvd",,"Los Angeles",CA,90046,https://www.yelp.com/biz/oscars-pancake-bar-los-angeles-4?adjust_creative=X5Beq4YFcWJGL3TdpUzGVg&utm_campaign=yelp_api_v3&utm_medium=api_v3_business_search&utm_source=X5Beq4YFcWJGL3TdpUzGVg,HW8FwXid3HpNZU2GI2p_aQ,34.0982,-118.3537,fooddeliveryservices,"Food Delivery Services",NA
"Burger Bitch",3,4.0,"7533 Sunset Blvd",,"Los Angeles",CA,90046,https://www.yelp.com/biz/burger-bitch-los-angeles-2?adjust_creative=X5Beq4YFcWJGL3TdpUzGVg&utm_campaign=yelp_api_v3&utm_medium=api_v3_business_search&utm_source=X5Beq4YFcWJGL3TdpUzGVg,E2VqvhSu9XGavwgE96js9A,34.0982,-118.3537,burgers,Burgers,NA
"Seaside Burritos and Tacos",2,3.0,"7533 Sunset Blvd",,"Los Angeles",CA,90046,https://www.yelp.com/biz/seaside-burritos-and-tacos-los-angeles-6?adjust_creative=X5Beq4YFcWJGL3TdpUzGVg&utm_campaign=yelp_api_v3&utm_medium=api_v3_business_search&utm_source=X5Beq4YFcWJGL3TdpUzGVg,IEQoU4ES7mchbieHz1_BLg,34.0982,-118.3537,fooddeliveryservices,"Food Delivery Services",NA
"Morning After Breakfast",3,2.5,"7533 Sunset Blvd",,"Los Angeles",CA,90046,https://www.yelp.com/biz/morning-after-breakfast-los-angeles?adjust_creative=X5Beq4YFcWJGL3TdpUzGVg&utm_campaign=yelp_api_v3&utm_medium=api_v3_business_search&utm_source=X5Beq4YFcWJGL3TdpUzGVg,yO74Uy7KTOaIYYn6In4CBg,34.0982,-118.3537,fooddeliveryservices,"Food Delivery Services",NA
"Welders Grilled Cheese Sunset",8,2.0,"7533 W Sunset Blvd",,"Los Angeles",CA,90046,https://www.yelp.com/biz/welders-grilled-cheese-sunset-los-angeles?adjust_creative=X5Beq4YFcWJGL3TdpUzGVg&utm_campaign=yelp_api_v3&utm_medium=api_v3_business_search&utm_source=X5Beq4YFcWJGL3TdpUzGVg,DOVMo6tyXDElek2jRYoFCQ,34.0982,-118.3537,fooddeliveryservices,"Food Delivery Services",NA
"Pipeline Wrap",1,5.0,"7533 Sunset Blvd",,"Los Angeles",CA,90046,https://www.yelp.com/biz/pipeline-wrap-los-angeles?adjust_creative=X5Beq4YFcWJGL3TdpUzGVg&utm_campaign=yelp_api_v3&utm_medium=api_v3_business_search&utm_source=X5Beq4YFcWJGL3TdpUzGVg,f1xu0LobsndVaPfdv_hPWA,34.0982,-118.3537,fooddeliveryservices,"Food Delivery Services",NA
"Ma Soul's Chicken & Waffles",1,1.0,"7533 Sunset Blvd",,"Los Angeles",CA,90046,https://www.yelp.com/biz/ma-souls-chicken-and-waffles-los-angeles?adjust_creative=X5Beq4YFcWJGL3TdpUzGVg&utm_campaign=yelp_api_v3&utm_medium=api_v3_business_search&utm_source=X5Beq4YFcWJGL3TdpUzGVg,ykwnzFgGIl5H6OgpjsWx7g,34.0982,-118.3537,waffles,Waffles,NA
Cheebo,757,3.5,"7533 W Sunset Blvd",,"Los Angeles",CA,90046,https://www.yelp.com/biz/cheebo-los-angeles?adjust_creative=X5Beq4YFcWJGL3TdpUzGVg&utm_campaign=yelp_api_v3&utm_medium=api_v3_business_search&utm_source=X5Beq4YFcWJGL3TdpUzGVg,pFYODrNhM2RowJ0jptU4vA,34.0981549,-118.3536219,pizza,Pizza,NA
"Uncool Burgers",426,4.5,"7881 Santa Monica Blvd",,"West Hollywood",CA,90046,https://www.yelp.com/biz/uncool-burgers-west-hollywood?adjust_creative=X5Beq4YFcWJGL3TdpUzGVg&utm_campaign=yelp_api_v3&utm_medium=api_v3_business_search&utm_source=X5Beq4YFcWJGL3TdpUzGVg,XfUlxPDVEsKbXqf5kJp1nA,34.09115,-118.36111,burgers,Burgers,NA
"The Surly Goat",417,4.0,"7929 Santa Monica Blvd",,"West Hollywood",CA,90046,https://www.yelp.com/biz/the-surly-goat-west-hollywood?adjust_creative=X5Beq4YFcWJGL3TdpUzGVg&utm_campaign=yelp_api_v3&utm_medium=api_v3_business_search&utm_source=X5Beq4YFcWJGL3TdpUzGVg,flu0d-Vuyrz4wPf1LO0-VQ,34.091133,-118.362586,pubs,Pubs,NA
Bohemia,264,4.5,"7525 Sunset Blvd",,"Los Angeles",CA,90046,https://www.yelp.com/biz/bohemia-los-angeles-2?adjust_creative=X5Beq4YFcWJGL3TdpUzGVg&utm_campaign=yelp_api_v3&utm_medium=api_v3_business_search&utm_source=X5Beq4YFcWJGL3TdpUzGVg,IT97CTQhDFx3aEsvNzZe5Q,34.0981549,-118.353556,coffee,"Coffee & Tea",NA
"Sunset Thai Cuisine",360,3.5,"7513 Sunset Blvd",,"Los Angeles",CA,90046,https://www.yelp.com/biz/sunset-thai-cuisine-los-angeles-2?adjust_creative=X5Beq4YFcWJGL3TdpUzGVg&utm_campaign=yelp_api_v3&utm_medium=api_v3_business_search&utm_source=X5Beq4YFcWJGL3TdpUzGVg,TuoznwsbwX87ufjOTbV30w,34.0981549,-118.3531437,thai,Thai,NA
"Stolichnaya Bakery",226,3.0,"7875 Santa Monica Blvd",,"West Hollywood",CA,90046,https://www.yelp.com/biz/stolichnaya-bakery-west-hollywood?adjust_creative=X5Beq4YFcWJGL3TdpUzGVg&utm_campaign=yelp_api_v3&utm_medium=api_v3_business_search&utm_source=X5Beq4YFcWJGL3TdpUzGVg,8VFNETU8kneb-M5wqGEtZw,34.0909587,-118.3609511,bakeries,Bakeries,NA
"Blackwood Coffee Bar",243,4.5,"7509 Sunset Blvd",,"Los Angeles",CA,90046,https://www.yelp.com/biz/blackwood-coffee-bar-los-angeles?adjust_creative=X5Beq4YFcWJGL3TdpUzGVg&utm_campaign=yelp_api_v3&utm_medium=api_v3_business_search&utm_source=X5Beq4YFcWJGL3TdpUzGVg,-uHuiKQXW3fRZJZ1nhS0Tg,34.09834,-118.35326,coffee,"Coffee & Tea",NA
Subway,17,4.0,"1111 N Fairfax Ave","Ste 108","West Hollywood",CA,90046,https://www.yelp.com/biz/subway-west-hollywood-9?adjust_creative=X5Beq4YFcWJGL3TdpUzGVg&utm_campaign=yelp_api_v3&utm_medium=api_v3_business_search&utm_source=X5Beq4YFcWJGL3TdpUzGVg,PaZO4BVlQBWZcqvCjepOtQ,34.0911105290452,-118.3616411,sandwiches,Sandwiches,NA
"Los Tacos",454,3.5,"7954 Santa Monica Blvd",,"W Hollywood",CA,90046,https://www.yelp.com/biz/los-tacos-w-hollywood?adjust_creative=X5Beq4YFcWJGL3TdpUzGVg&utm_campaign=yelp_api_v3&utm_medium=api_v3_business_search&utm_source=X5Beq4YFcWJGL3TdpUzGVg,_F9CHvoUZvaVatlNEoO1Ww,34.0906851,-118.3631966,mexican,Mexican,NA
"TOI On Sunset",1245,3.5,"7505 1/2 W Sunset Blvd",,"Los Angeles",CA,90046,https://www.yelp.com/biz/toi-on-sunset-los-angeles?adjust_creative=X5Beq4YFcWJGL3TdpUzGVg&utm_campaign=yelp_api_v3&utm_medium=api_v3_business_search&utm_source=X5Beq4YFcWJGL3TdpUzGVg,rHQHvoqY3JofDNQS2cOFQA,34.0981549,-118.3530787,thai,Thai,NA
7-Eleven,32,2.0,"7950 Santa Monica Blvd",,"West Hollywood",CA,90046,https://www.yelp.com/biz/7-eleven-west-hollywood-3?adjust_creative=X5Beq4YFcWJGL3TdpUzGVg&utm_campaign=yelp_api_v3&utm_medium=api_v3_business_search&utm_source=X5Beq4YFcWJGL3TdpUzGVg,qIlK40WrOdLCkr0kTxAKKw,34.0904596239478,-118.362952172756,convenience,"Convenience Stores",NA
"Tacos Neza",127,4.5,"7501 Sunset Blvd",,"Los Angeles",CA,90046,https://www.yelp.com/biz/tacos-neza-los-angeles?adjust_creative=X5Beq4YFcWJGL3TdpUzGVg&utm_campaign=yelp_api_v3&utm_medium=api_v3_business_search&utm_source=X5Beq4YFcWJGL3TdpUzGVg,Bj4YOeGdsU8XU5E6FEv6HA,34.098264,-118.352986,tacos,Tacos,NA
Birdies,62,4.0,"7900 Santa Monica Blvd",,"West Hollywood",CA,90046,https://www.yelp.com/biz/birdies-west-hollywood?adjust_creative=X5Beq4YFcWJGL3TdpUzGVg&utm_campaign=yelp_api_v3&utm_medium=api_v3_business_search&utm_source=X5Beq4YFcWJGL3TdpUzGVg,xj7b4ueNQed23k7qHRIg-A,34.09054,-118.36174,donuts,Donuts,NA
"Moun Of Tunis Restaurant",285,4.0,"7445 1/2 W Sunset Blvd",,"Los Angeles",CA,90046,https://www.yelp.com/biz/moun-of-tunis-restaurant-los-angeles?adjust_creative=X5Beq4YFcWJGL3TdpUzGVg&utm_campaign=yelp_api_v3&utm_medium=api_v3_business_search&utm_source=X5Beq4YFcWJGL3TdpUzGVg,u8U8Zc1Se_gY30zNeOTSqg,34.098451,-118.352524,moroccan,Moroccan,NA
"Electric Owl",458,4.0,"1451 N Gardner St",,"Los Angeles",CA,90046,https://www.yelp.com/biz/electric-owl-los-angeles?adjust_creative=X5Beq4YFcWJGL3TdpUzGVg&utm_campaign=yelp_api_v3&utm_medium=api_v3_business_search&utm_source=X5Beq4YFcWJGL3TdpUzGVg,ly7L13OVHcSOm1JSuFwKwg,34.0976460995354,-118.352917253222,cocktailbars,"Cocktail Bars",NA
"Kung Pao Bistro",997,3.5,"7853 Santa Monica Blvd",,"West Hollywood",CA,90046,https://www.yelp.com/biz/kung-pao-bistro-west-hollywood?adjust_creative=X5Beq4YFcWJGL3TdpUzGVg&utm_campaign=yelp_api_v3&utm_medium=api_v3_business_search&utm_source=X5Beq4YFcWJGL3TdpUzGVg,QkQGT5BAVnuMsFY6FWP6MQ,34.0909549,-118.3603617,chinese,Chinese,NA
Mamakingstonkitchen,11,2.0,"7445 Sunset Blvd",,"Los Angeles",CA,90046,https://www.yelp.com/biz/mamakingstonkitchen-los-angeles?adjust_creative=X5Beq4YFcWJGL3TdpUzGVg&utm_campaign=yelp_api_v3&utm_medium=api_v3_business_search&utm_source=X5Beq4YFcWJGL3TdpUzGVg,7rAPmEcUjMopYUMwQMPQFA,34.0981801678305,-118.352443948388,caribbean,Caribbean,NA
"Arbat Deli",28,3.5,"7868 3/4 Santa Monica Blvd",,"West Hollywood",CA,90046,https://www.yelp.com/biz/arbat-deli-west-hollywood?adjust_creative=X5Beq4YFcWJGL3TdpUzGVg&utm_campaign=yelp_api_v3&utm_medium=api_v3_business_search&utm_source=X5Beq4YFcWJGL3TdpUzGVg,Qrmdvty9GpK6UZTpaUFo-A,34.0905532836914,-118.361038208008,delis,Delis,NA
"T & Y Bakery",35,3.5,"7862 Santa Monica Blvd",,"West Hollywood",CA,90046,https://www.yelp.com/biz/t-and-y-bakery-west-hollywood?adjust_creative=X5Beq4YFcWJGL3TdpUzGVg&utm_campaign=yelp_api_v3&utm_medium=api_v3_business_search&utm_source=X5Beq4YFcWJGL3TdpUzGVg,8T40ClCjOwA-V1NXBB9TwQ,34.0906896,-118.3609914,bakeries,Bakeries,NA
"Sunset Grill Hollywood",322,4.0,"7439 W Sunset Blvd",,"Los Angeles",CA,90046,https://www.yelp.com/biz/sunset-grill-hollywood-los-angeles?adjust_creative=X5Beq4YFcWJGL3TdpUzGVg&utm_campaign=yelp_api_v3&utm_medium=api_v3_business_search&utm_source=X5Beq4YFcWJGL3TdpUzGVg,OKzJD_hltbs6Jkls3Ypl2g,34.09828,-118.35224,cocktailbars,"Cocktail Bars",NA
"El Compadre",1743,3.5,"7408 W Sunset Blvd",,"Los Angeles",CA,90046,https://www.yelp.com/biz/el-compadre-los-angeles-7?adjust_creative=X5Beq4YFcWJGL3TdpUzGVg&utm_campaign=yelp_api_v3&utm_medium=api_v3_business_search&utm_source=X5Beq4YFcWJGL3TdpUzGVg,1ZzhJds84q831qpnJC-ZFA,34.09769,-118.35205,mexican,Mexican,NA
RockWalk,6,5.0,"7425 W Sunset Blvd",,"Los Angeles",CA,90046,https://www.yelp.com/biz/rockwalk-los-angeles?adjust_creative=X5Beq4YFcWJGL3TdpUzGVg&utm_campaign=yelp_api_v3&utm_medium=api_v3_business_search&utm_source=X5Beq4YFcWJGL3TdpUzGVg,8OrYAPLq7cDKtQ_SbvnpNw,34.0981393423276,-118.351877143566,museums,Museums,NA
"Coffee Coffee",150,4.5,"1040 N Fairfax Ave",,"West Hollywood",CA,90046,https://www.yelp.com/biz/coffee-coffee-west-hollywood?adjust_creative=X5Beq4YFcWJGL3TdpUzGVg&utm_campaign=yelp_api_v3&utm_medium=api_v3_business_search&utm_source=X5Beq4YFcWJGL3TdpUzGVg,oVL1_eSh_gSOMKpDIkEg4Q,34.0898076,-118.3612356,coffee,"Coffee & Tea",NA
"Fruta China Poblana",1,5.0,"7300 Franklin Ave",,"West Hollywood",CA,90046,https://www.yelp.com/biz/fruta-china-poblana-west-hollywood?adjust_creative=X5Beq4YFcWJGL3TdpUzGVg&utm_campaign=yelp_api_v3&utm_medium=api_v3_business_search&utm_source=X5Beq4YFcWJGL3TdpUzGVg,TDvafFmrQYS4o4rGmUvevA,34.1028,-118.34942,streetvendors,"Street Vendors",2
"Don't Touch My Cookies",24,5.0,,,"West Hollywood",CA,90046,https://www.yelp.com/biz/dont-touch-my-cookies-west-hollywood?adjust_creative=X5Beq4YFcWJGL3TdpUzGVg&utm_campaign=yelp_api_v3&utm_medium=api_v3_business_search&utm_source=X5Beq4YFcWJGL3TdpUzGVg,fe5euZTUUY4HR_-8avnxcA,34.0899008545852,-118.360797427756,desserts,Desserts,2
"The Moment Hotel",146,3.5,"7370 Sunset Blvd",,"Los Angeles",CA,90046,https://www.yelp.com/biz/the-moment-hotel-los-angeles?adjust_creative=X5Beq4YFcWJGL3TdpUzGVg&utm_campaign=yelp_api_v3&utm_medium=api_v3_business_search&utm_source=X5Beq4YFcWJGL3TdpUzGVg,CfwSkrc_BeL0vbeooL7GNw,34.0977950874632,-118.351559154529,hotels,Hotels,2
"Nancy Hoover Pohl Overlook",29,4.0,"8401 Mulholland Dr",,"Los Angeles",CA,90046,https://www.yelp.com/biz/nancy-hoover-pohl-overlook-los-angeles?adjust_creative=X5Beq4YFcWJGL3TdpUzGVg&utm_campaign=yelp_api_v3&utm_medium=api_v3_business_search&utm_source=X5Beq4YFcWJGL3TdpUzGVg,cx3LPeGnl_CuKE5eoSD0JA,34.1220834,-118.383829,parks,Parks,2
"Runyon Canyon Park",1820,4.0,"2000 N Fuller Ave",,"Los Angeles",CA,90046,https://www.yelp.com/biz/runyon-canyon-park-los-angeles-2?adjust_creative=X5Beq4YFcWJGL3TdpUzGVg&utm_campaign=yelp_api_v3&utm_medium=api_v3_business_search&utm_source=X5Beq4YFcWJGL3TdpUzGVg,MZg4epnmlRa0eLA_x-JUnQ,34.1052842673448,-118.349050283432,dog_parks,"Dog Parks",2
"Briar Summit Open Space Preserve",1,5.0,"7987 Briar Summit Dr",,"Los Angeles",CA,90046,https://www.yelp.com/biz/briar-summit-open-space-preserve-los-angeles?adjust_creative=X5Beq4YFcWJGL3TdpUzGVg&utm_campaign=yelp_api_v3&utm_medium=api_v3_business_search&utm_source=X5Beq4YFcWJGL3TdpUzGVg,uuvYQMtUuGq-gzsI55Ihxw,34.125099,-118.3712545,parks,Parks,2
"Roofdeck Lounge at The Moment Hotel",2,4.5,"7370 Sunset Blvd",,"Los Angeles",CA,90046,https://www.yelp.com/biz/roofdeck-lounge-at-the-moment-hotel-los-angeles-4?adjust_creative=X5Beq4YFcWJGL3TdpUzGVg&utm_campaign=yelp_api_v3&utm_medium=api_v3_business_search&utm_source=X5Beq4YFcWJGL3TdpUzGVg,keRUJzBo2enXGXCwO-mYvg,34.09766,-118.35142,lounges,Lounges,2
"Aroma Bar and Grill",776,3.5,"7373 W Sunset Blvd",,"Los Angeles",CA,90046,https://www.yelp.com/biz/aroma-bar-and-grill-los-angeles-4?adjust_creative=X5Beq4YFcWJGL3TdpUzGVg&utm_campaign=yelp_api_v3&utm_medium=api_v3_business_search&utm_source=X5Beq4YFcWJGL3TdpUzGVg,n_zTef4kNlpzQLaAQWVANQ,34.0982695686335,-118.350930021457,breakfast_brunch,"Breakfast & Brunch",2
"New York Delicatessen",21,3.0,"7754 Santa Monica Blvd",,"Los Angeles",CA,90046,https://www.yelp.com/biz/new-york-delicatessen-los-angeles?adjust_creative=X5Beq4YFcWJGL3TdpUzGVg&utm_campaign=yelp_api_v3&utm_medium=api_v3_business_search&utm_source=X5Beq4YFcWJGL3TdpUzGVg,aEOV5LQ9qj6qhirnoaBxyw,34.0906851,-118.3586483,delis,Delis,2
"Aroma Hookah Bar",91,4.0,"7373 W Sunset Blvd",,"Los Angeles",CA,90046,https://www.yelp.com/biz/aroma-hookah-bar-los-angeles?adjust_creative=X5Beq4YFcWJGL3TdpUzGVg&utm_campaign=yelp_api_v3&utm_medium=api_v3_business_search&utm_source=X5Beq4YFcWJGL3TdpUzGVg,1tdFpo_Lfr1eSgthurOlNw,34.09837,-118.35072,hookah_bars,"Hookah Bars",2
"Farm Cup Coffee",47,4.5,"7748 Santa Monica Blvd",,"West Hollywood",CA,90046,https://www.yelp.com/biz/farm-cup-coffee-west-hollywood-2?adjust_creative=X5Beq4YFcWJGL3TdpUzGVg&utm_campaign=yelp_api_v3&utm_medium=api_v3_business_search&utm_source=X5Beq4YFcWJGL3TdpUzGVg,6de1yFMoJcCoEKkx0K21JQ,34.0907,-118.35820913404558,coffee,"Coffee & Tea",2
"BBQ + Rice WeHo",329,4.5,"7363 W Sunset Blvd",,"Los Angeles",CA,90046,https://www.yelp.com/biz/bbq-rice-weho-los-angeles-8?adjust_creative=X5Beq4YFcWJGL3TdpUzGVg&utm_campaign=yelp_api_v3&utm_medium=api_v3_business_search&utm_source=X5Beq4YFcWJGL3TdpUzGVg,IzLRBCRlworctabyPjvXjw,34.0981449,-118.3504349,korean,Korean,2
"Big Mama's & Papa's Pizzeria",232,3.0,"7353 W Sunset Blvd",,"Los Angeles",CA,90046,https://www.yelp.com/biz/big-mamas-and-papas-pizzeria-los-angeles?adjust_creative=X5Beq4YFcWJGL3TdpUzGVg&utm_campaign=yelp_api_v3&utm_medium=api_v3_business_search&utm_source=X5Beq4YFcWJGL3TdpUzGVg,ngqNbwTLMcro79ART0ASvg,34.09836,-118.35031,pizza,Pizza,2
Ysabel,1319,3.5,"945 N Fairfax Ave",,"West Hollywood",CA,90046,https://www.yelp.com/biz/ysabel-west-hollywood?adjust_creative=X5Beq4YFcWJGL3TdpUzGVg&utm_campaign=yelp_api_v3&utm_medium=api_v3_business_search&utm_source=X5Beq4YFcWJGL3TdpUzGVg,D6_mb0MZdAVvfmwYOFHK-A,34.088527,-118.361878,newamerican,"American (New)",2
Kashtan,54,4.5,"7707 Santa Monica Blvd",,"West Hollywood",CA,90046,https://www.yelp.com/biz/kashtan-west-hollywood?adjust_creative=X5Beq4YFcWJGL3TdpUzGVg&utm_campaign=yelp_api_v3&utm_medium=api_v3_business_search&utm_source=X5Beq4YFcWJGL3TdpUzGVg,t__k23QspwzSrYQTPexXjA,34.0909349,-118.3569819,russian,Russian,2
"Chibiscus Asian Cafe",1139,4.5,"7361 W Sunset Blvd",,"Los Angeles",CA,90046,https://www.yelp.com/biz/chibiscus-asian-cafe-los-angeles-2?adjust_creative=X5Beq4YFcWJGL3TdpUzGVg&utm_campaign=yelp_api_v3&utm_medium=api_v3_business_search&utm_source=X5Beq4YFcWJGL3TdpUzGVg,llKP5-ZAG8I-RVbKrSatQQ,34.0981492,-118.3501071,asianfusion,"Asian Fusion",2
"Urban Ramen",835,3.5,"7300 W Sunset Blvd","Ste A","Los Angeles",CA,90046,https://www.yelp.com/biz/urban-ramen-los-angeles-2?adjust_creative=X5Beq4YFcWJGL3TdpUzGVg&utm_campaign=yelp_api_v3&utm_medium=api_v3_business_search&utm_source=X5Beq4YFcWJGL3TdpUzGVg,DLyTZUzlM9ymEr3smImO6Q,34.097842,-118.350127,ramen,Ramen,2
"Mechta Deli",32,4.0,"7712 Santa Monica Blvd",,"West Hollywood",CA,90046,https://www.yelp.com/biz/mechta-deli-west-hollywood?adjust_creative=X5Beq4YFcWJGL3TdpUzGVg&utm_campaign=yelp_api_v3&utm_medium=api_v3_business_search&utm_source=X5Beq4YFcWJGL3TdpUzGVg,qNB9rcprlKr87SKC6RutJQ,34.09051,-118.35702,delis,Delis,2
"Golden Bread Bakery",10,4.0,"7300 Sunset Blvd",,"Los Angeles",CA,90046,https://www.yelp.com/biz/golden-bread-bakery-los-angeles-7?adjust_creative=X5Beq4YFcWJGL3TdpUzGVg&utm_campaign=yelp_api_v3&utm_medium=api_v3_business_search&utm_source=X5Beq4YFcWJGL3TdpUzGVg,M9PBtmzMA3r0gEURLkMQAA,34.0976494664071,-118.349949343625,desserts,Desserts,2
"Bar Lubitsch",677,4.0,"7702 Santa Monica Blvd",,"West Hollywood",CA,90046,https://www.yelp.com/biz/bar-lubitsch-west-hollywood?adjust_creative=X5Beq4YFcWJGL3TdpUzGVg&utm_campaign=yelp_api_v3&utm_medium=api_v3_business_search&utm_source=X5Beq4YFcWJGL3TdpUzGVg,mqDRI-CpKjkVW249B0-22A,34.090517,-118.356777,danceclubs,"Dance Clubs",2
"Izakaya Yuzu",1,3.0,"8711 Santa Monica Blvd",,"West Hollywood",CA,90046,https://www.yelp.com/biz/izakaya-yuzu-west-hollywood?adjust_creative=X5Beq4YFcWJGL3TdpUzGVg&utm_campaign=yelp_api_v3&utm_medium=api_v3_business_search&utm_source=X5Beq4YFcWJGL3TdpUzGVg,eMuNPZgwNdqRFxb4BhNJrQ,34.0874308,-118.3805041,japanese,Japanese,2
"The Carving Board",722,4.5,"7300 Sunset Blvd",,"Los Angeles",CA,90046,https://www.yelp.com/biz/the-carving-board-los-angeles?adjust_creative=X5Beq4YFcWJGL3TdpUzGVg&utm_campaign=yelp_api_v3&utm_medium=api_v3_business_search&utm_source=X5Beq4YFcWJGL3TdpUzGVg,9OhKC782fYh0akM1VIfMxQ,34.0974499,-118.349941,sandwiches,Sandwiches,2
"India's Tandoori Hollywood",592,4.5,"7300 Sunset Blvd",,"Los Angeles",CA,90046,https://www.yelp.com/biz/indias-tandoori-hollywood-los-angeles?adjust_creative=X5Beq4YFcWJGL3TdpUzGVg&utm_campaign=yelp_api_v3&utm_medium=api_v3_business_search&utm_source=X5Beq4YFcWJGL3TdpUzGVg,tEK23PiHNXBHzu8994jurg,34.09762,-118.34993,indpak,Indian,2
"Le Balcon Bakery",58,4.0,"7300 Sunset Blvd","Unit H","Los Angeles",CA,90046,https://www.yelp.com/biz/le-balcon-bakery-los-angeles-2?adjust_creative=X5Beq4YFcWJGL3TdpUzGVg&utm_campaign=yelp_api_v3&utm_medium=api_v3_business_search&utm_source=X5Beq4YFcWJGL3TdpUzGVg,hU-xW06DquClW4GHc0y67A,34.09762,-118.34993,bakeries,Bakeries,2
"Babushka Grandma's Deli",118,3.5,"7300 W Sunset Blvd","Ste M","Los Angeles",CA,90046,https://www.yelp.com/biz/babushka-grandmas-deli-los-angeles-9?adjust_creative=X5Beq4YFcWJGL3TdpUzGVg&utm_campaign=yelp_api_v3&utm_medium=api_v3_business_search&utm_source=X5Beq4YFcWJGL3TdpUzGVg,MUT6jOalbT-1YcekUzutpQ,34.0976181030273,-118.34992980957,delis,Delis,2
"AL Basch Chicken",345,4.5,"7311 W Sunset Blvd",,"Los Angeles",CA,90046,https://www.yelp.com/biz/al-basch-chicken-los-angeles?adjust_creative=X5Beq4YFcWJGL3TdpUzGVg&utm_campaign=yelp_api_v3&utm_medium=api_v3_business_search&utm_source=X5Beq4YFcWJGL3TdpUzGVg,BvQqye2Qs18Ig1Qr95f-fA,34.0985000246467,-118.349306577298,mediterranean,Mediterranean,2
"Super Donut House",76,4.5,"7307 W Sunset Blvd",,"West Hollywood",CA,90046,https://www.yelp.com/biz/super-donut-house-west-hollywood-2?adjust_creative=X5Beq4YFcWJGL3TdpUzGVg&utm_campaign=yelp_api_v3&utm_medium=api_v3_business_search&utm_source=X5Beq4YFcWJGL3TdpUzGVg,y5DwPsr57sljE5gIostdQQ,34.09829551075878,-118.34930578650517,donuts,Donuts,2
7-Eleven,26,3.5,"7609 Santa Monica Blvd",,"Los Angeles",CA,90046,https://www.yelp.com/biz/7-eleven-los-angeles-123?adjust_creative=X5Beq4YFcWJGL3TdpUzGVg&utm_campaign=yelp_api_v3&utm_medium=api_v3_business_search&utm_source=X5Beq4YFcWJGL3TdpUzGVg,TTUmvCuPZuBkO7h6xFwRGg,34.0911668759637,-118.355372,convenience,"Convenience Stores",2
Starbucks,26,3.5,"7257 W Sunset Blvd",,"Los Angeles",CA,90046,https://www.yelp.com/biz/starbucks-los-angeles-487?adjust_creative=X5Beq4YFcWJGL3TdpUzGVg&utm_campaign=yelp_api_v3&utm_medium=api_v3_business_search&utm_source=X5Beq4YFcWJGL3TdpUzGVg,Yi5okCVo7bHzLchcORqVHw,34.09855,-118.348487,coffee,"Coffee & Tea",2
"Oki Dog",237,3.0,"860 N Fairfax Ave",,"Los Angeles",CA,90046,https://www.yelp.com/biz/oki-dog-los-angeles?adjust_creative=X5Beq4YFcWJGL3TdpUzGVg&utm_campaign=yelp_api_v3&utm_medium=api_v3_business_search&utm_source=X5Beq4YFcWJGL3TdpUzGVg,pmJWaHSBQIUypQYAHx8p0A,34.08706,-118.36121,hotdog,"Hot Dogs",2
"Chemosphere - Malin House",4,4.5,"7776 Torreyson Dr",,"West Hollywood",CA,90046,https://www.yelp.com/biz/chemosphere-malin-house-west-hollywood?adjust_creative=X5Beq4YFcWJGL3TdpUzGVg&utm_campaign=yelp_api_v3&utm_medium=api_v3_business_search&utm_source=X5Beq4YFcWJGL3TdpUzGVg,lg6A5YCGhPZ910fRopYpLQ,34.12728,-118.36919,landmarks,"Landmarks & Historical Buildings",2
"Masala #2",85,4.5,"7226 Sunset Blvd",,"West Hollywood",CA,90046,https://www.yelp.com/biz/masala-2-west-hollywood?adjust_creative=X5Beq4YFcWJGL3TdpUzGVg&utm_campaign=yelp_api_v3&utm_medium=api_v3_business_search&utm_source=X5Beq4YFcWJGL3TdpUzGVg,lNXM0LruPbNCFFCXB0Vzyg,34.09767683,-118.34804467,indpak,Indian,2
"Domino's Pizza",48,2.5,"7220 Sunset Blvd",,"Los Angeles",CA,90046,https://www.yelp.com/biz/dominos-pizza-los-angeles-68?adjust_creative=X5Beq4YFcWJGL3TdpUzGVg&utm_campaign=yelp_api_v3&utm_medium=api_v3_business_search&utm_source=X5Beq4YFcWJGL3TdpUzGVg,keYziB0x-8I_yLl5_Idwfg,34.0976301,-118.348001,pizza,Pizza,2
"Moderno Cocina",28,5.0,"7511 Santa Monica Blvd",,"West Hollywood",CA,90046,https://www.yelp.com/biz/moderno-cocina-west-hollywood?adjust_creative=X5Beq4YFcWJGL3TdpUzGVg&utm_campaign=yelp_api_v3&utm_medium=api_v3_business_search&utm_source=X5Beq4YFcWJGL3TdpUzGVg,gp4dXraq09Bv-v19Dn0k9w,34.09104583379495,-118.3532488,tacos,Tacos,2
"Las Perlas",21,4.0,"7511 Santa Monica Blvd",,"West Hollywood",CA,90046,https://www.yelp.com/biz/las-perlas-west-hollywood?adjust_creative=X5Beq4YFcWJGL3TdpUzGVg&utm_campaign=yelp_api_v3&utm_medium=api_v3_business_search&utm_source=X5Beq4YFcWJGL3TdpUzGVg,D4Te-IVE3xw5l02OAKNIjA,34.09091575503826,-118.35322972557239,cocktailbars,"Cocktail Bars",2
"Blue Bottle Coffee",57,4.5,"830 N Fairfax Ave",,"Los Angeles",CA,90046,https://www.yelp.com/biz/blue-bottle-coffee-los-angeles-26?adjust_creative=X5Beq4YFcWJGL3TdpUzGVg&utm_campaign=yelp_api_v3&utm_medium=api_v3_business_search&utm_source=X5Beq4YFcWJGL3TdpUzGVg,-rYe2JHZga9XGo7kspJYDQ,34.08631,-118.36112,coffee,"Coffee & Tea",2
"Angel Wings",2,1.0,"801 N Fairfax Ave",,"Los Angeles",CA,90046,https://www.yelp.com/biz/angel-wings-los-angeles?adjust_creative=X5Beq4YFcWJGL3TdpUzGVg&utm_campaign=yelp_api_v3&utm_medium=api_v3_business_search&utm_source=X5Beq4YFcWJGL3TdpUzGVg,Tqw8Sv-XMuQLEQtrXpGSVA,34.08605029414484,-118.36168417414552,fooddeliveryservices,"Food Delivery Services",2
"Fisher & Son's Fish & Chips",3,2.5,"801 North Fairfax Ave",,"Los Angeles",CA,90046,https://www.yelp.com/biz/fisher-and-sons-fish-and-chips-los-angeles-2?adjust_creative=X5Beq4YFcWJGL3TdpUzGVg&utm_campaign=yelp_api_v3&utm_medium=api_v3_business_search&utm_source=X5Beq4YFcWJGL3TdpUzGVg,8XVduLjawsYpU6Qe8BVWgQ,34.085984,-118.361701,fooddeliveryservices,"Food Delivery Services",2
"No Joke PBJ",3,1.5,"801 N Fairfax Ave",,"Los Angeles",CA,90046,https://www.yelp.com/biz/no-joke-pbj-los-angeles-2?adjust_creative=X5Beq4YFcWJGL3TdpUzGVg&utm_campaign=yelp_api_v3&utm_medium=api_v3_business_search&utm_source=X5Beq4YFcWJGL3TdpUzGVg,fuLjhxltd6PgWS2bBZSBTA,34.085984,-118.361701,desserts,Desserts,2
"The Codfather",1,1.0,"801 Fairfax Avenue",,"Los Angeles",CA,90046,https://www.yelp.com/biz/the-codfather-los-angeles-2?adjust_creative=X5Beq4YFcWJGL3TdpUzGVg&utm_campaign=yelp_api_v3&utm_medium=api_v3_business_search&utm_source=X5Beq4YFcWJGL3TdpUzGVg,BSxFCUGCmhXVVv2BkWq_Mw,34.085984,-118.361701,fooddeliveryservices,"Food Delivery Services",2
"Sierra Bonita Mexican Grill",1,1.0,"801 N Fairfax Ave",,"Los Angeles",CA,90046,https://www.yelp.com/biz/sierra-bonita-mexican-grill-los-angeles-4?adjust_creative=X5Beq4YFcWJGL3TdpUzGVg&utm_campaign=yelp_api_v3&utm_medium=api_v3_business_search&utm_source=X5Beq4YFcWJGL3TdpUzGVg,nQCo4qMYgbxALUZ-EZzTkw,34.085984,-118.361701,fooddeliveryservices,"Food Delivery Services",2
Madre,194,4.0,"801 N Fairfax Ave","Ste 101","Los Angeles",CA,90046,https://www.yelp.com/biz/madre-los-angeles?adjust_creative=X5Beq4YFcWJGL3TdpUzGVg&utm_campaign=yelp_api_v3&utm_medium=api_v3_business_search&utm_source=X5Beq4YFcWJGL3TdpUzGVg,xmmtvpuxZDWe-9tB2e7NBQ,34.086013,-118.361719,mexican,Mexican,2
"Cheebo Express",18,4.0,"801 N Fairfax Ave",,"Los Angeles",CA,90046,https://www.yelp.com/biz/cheebo-express-los-angeles?adjust_creative=X5Beq4YFcWJGL3TdpUzGVg&utm_campaign=yelp_api_v3&utm_medium=api_v3_business_search&utm_source=X5Beq4YFcWJGL3TdpUzGVg,MYjaE2cD7KjY9LvuY_oRLw,34.086013,-118.361719,burgers,Burgers,2
Kinari,116,4.5,"801 N Fairfax Ave","Ste 107","Los Angeles",CA,90046,https://www.yelp.com/biz/kinari-los-angeles-3?adjust_creative=X5Beq4YFcWJGL3TdpUzGVg&utm_campaign=yelp_api_v3&utm_medium=api_v3_business_search&utm_source=X5Beq4YFcWJGL3TdpUzGVg,mqfIyw-VNJfaOdsFkviucg,34.086013,-118.361719,sushi,"Sushi Bars",2
"Nacho Lords",3,1.5,"801 N Fairfax Ave",,"Los Angeles",CA,90046,https://www.yelp.com/biz/nacho-lords-los-angeles-3?adjust_creative=X5Beq4YFcWJGL3TdpUzGVg&utm_campaign=yelp_api_v3&utm_medium=api_v3_business_search&utm_source=X5Beq4YFcWJGL3TdpUzGVg,uW7d-AdnMFWKH-nQ3SlLIg,34.085984,-118.361701,fooddeliveryservices,"Food Delivery Services",NA
"Coffee Commissary",748,4.0,"801 N Fairfax Ave",,"Los Angeles",CA,90046,https://www.yelp.com/biz/coffee-commissary-los-angeles?adjust_creative=X5Beq4YFcWJGL3TdpUzGVg&utm_campaign=yelp_api_v3&utm_medium=api_v3_business_search&utm_source=X5Beq4YFcWJGL3TdpUzGVg,FDajejugC-0tO3lSxr7xow,34.0859914538606,-118.361675796295,coffee,"Coffee & Tea",NA
"Astro Burger",793,4.0,"7475 Santa Monica Blvd",,"West Hollywood",CA,90046,https://www.yelp.com/biz/astro-burger-west-hollywood-2?adjust_creative=X5Beq4YFcWJGL3TdpUzGVg&utm_campaign=yelp_api_v3&utm_medium=api_v3_business_search&utm_source=X5Beq4YFcWJGL3TdpUzGVg,Ot60d9BaHuwhBBCmr7Js2g,34.091,-118.35245,burgers,Burgers,NA
"Madison & Park Coffee",113,4.0,"7494 Santa Monica Blvd",,"West Hollywood",CA,90046,https://www.yelp.com/biz/madison-and-park-coffee-west-hollywood?adjust_creative=X5Beq4YFcWJGL3TdpUzGVg&utm_campaign=yelp_api_v3&utm_medium=api_v3_business_search&utm_source=X5Beq4YFcWJGL3TdpUzGVg,znR-dD1qxt_VqQMJQDT9KA,34.09048,-118.35288,coffee,"Coffee & Tea",NA
"Breakfast by Salt’s Cure",226,3.5,"7494 Santa Monica Blvd",,"West Hollywood",CA,90046,https://www.yelp.com/biz/breakfast-by-salt-s-cure-west-hollywood?adjust_creative=X5Beq4YFcWJGL3TdpUzGVg&utm_campaign=yelp_api_v3&utm_medium=api_v3_business_search&utm_source=X5Beq4YFcWJGL3TdpUzGVg,leqXWJeyPW5iiayxC4Gsqg,34.09048,-118.35288,breakfast_brunch,"Breakfast & Brunch",NA
"Kens Corner Cafe",7,1.0,"1651 3/4 N La Brea Ave",,"Los Angeles",CA,90046,https://www.yelp.com/biz/kens-corner-cafe-los-angeles?adjust_creative=X5Beq4YFcWJGL3TdpUzGVg&utm_campaign=yelp_api_v3&utm_medium=api_v3_business_search&utm_source=X5Beq4YFcWJGL3TdpUzGVg,N_jg7--mm7HEw6iN1COMZw,34.10126,-118.34529,newamerican,"American (New)",NA
"The Punk Museum",1,3.0,"7190 Sunset Blvd",,"Los Angeles",CA,90046,https://www.yelp.com/biz/the-punk-museum-los-angeles-2?adjust_creative=X5Beq4YFcWJGL3TdpUzGVg&utm_campaign=yelp_api_v3&utm_medium=api_v3_business_search&utm_source=X5Beq4YFcWJGL3TdpUzGVg,jsMUkKsk9MiE8mB7zudZKg,34.0979743,-118.346717,musicvenues,"Music Venues",NA
"Bossa Nova on Sunset",3428,3.5,"7181 W Sunset Blvd",,"Los Angeles",CA,90046,https://www.yelp.com/biz/bossa-nova-brazilian-cuisine-los-angeles-4?adjust_creative=X5Beq4YFcWJGL3TdpUzGVg&utm_campaign=yelp_api_v3&utm_medium=api_v3_business_search&utm_source=X5Beq4YFcWJGL3TdpUzGVg,uMY7uC9m7HxRNAZGkjtdbA,34.0981249,-118.3466467,brazilian,Brazilian,NA
Fatburger,245,3.5,"7450 Santa Monica Blvd",,"West Hollywood",CA,90046,https://www.yelp.com/biz/fatburger-west-hollywood?adjust_creative=X5Beq4YFcWJGL3TdpUzGVg&utm_campaign=yelp_api_v3&utm_medium=api_v3_business_search&utm_source=X5Beq4YFcWJGL3TdpUzGVg,Bakm2JpXhCFXW0V-6tK-yA,34.0905595,-118.3523904,burgers,Burgers,NA
"Carrera Cafe",400,4.0,"8251 Melrose Ave",,"Los Angeles",CA,90046,https://www.yelp.com/biz/carrera-cafe-los-angeles?adjust_creative=X5Beq4YFcWJGL3TdpUzGVg&utm_campaign=yelp_api_v3&utm_medium=api_v3_business_search&utm_source=X5Beq4YFcWJGL3TdpUzGVg,3nmc_ykZgrWyDOP76HUMYg,34.0838349,-118.3692845,cafes,Cafes,NA
"The Burial Place of J.B. Lankershim",4,4.0,"3204 Nichols Canyon Rd",,"Los Angeles",CA,90046,https://www.yelp.com/biz/the-burial-place-of-j-b-lankershim-los-angeles?adjust_creative=X5Beq4YFcWJGL3TdpUzGVg&utm_campaign=yelp_api_v3&utm_medium=api_v3_business_search&utm_source=X5Beq4YFcWJGL3TdpUzGVg,xzjX8wRR9wlbepKZKk5l2g,34.1280708,-118.3643112,landmarks,"Landmarks & Historical Buildings",NA
TasteBuds,1,5.0,"800 N Fairfax Ave",,"Los Angeles",CA,90046,https://www.yelp.com/biz/tastebuds-los-angeles-5?adjust_creative=X5Beq4YFcWJGL3TdpUzGVg&utm_campaign=yelp_api_v3&utm_medium=api_v3_business_search&utm_source=X5Beq4YFcWJGL3TdpUzGVg,H-Cjxvy9w901G2tbI1tX0A,34.08554,-118.36114,newamerican,"American (New)",NA
"Galanga Thai Fusion",773,4.5,"7440 Santa Monica Blvd",,"West Hollywood",CA,90046,https://www.yelp.com/biz/galanga-thai-fusion-west-hollywood?adjust_creative=X5Beq4YFcWJGL3TdpUzGVg&utm_campaign=yelp_api_v3&utm_medium=api_v3_business_search&utm_source=X5Beq4YFcWJGL3TdpUzGVg,IKkjFMyOTGeeak-VEJDnjw,34.090631,-118.3520775,thai,Thai,NA
"Plummer Park",93,4.0,"7377 Santa Monica Blvd",,"West Hollywood",CA,90046,https://www.yelp.com/biz/plummer-park-west-hollywood?adjust_creative=X5Beq4YFcWJGL3TdpUzGVg&utm_campaign=yelp_api_v3&utm_medium=api_v3_business_search&utm_source=X5Beq4YFcWJGL3TdpUzGVg,OQ2Qk-d0qKd5s97aenaoPw,34.09257,-118.35106,parks,Parks,NA
Crossroads,2515,4.0,"8284 Melrose Ave",,"Los Angeles",CA,90046,https://www.yelp.com/biz/crossroads-los-angeles-3?adjust_creative=X5Beq4YFcWJGL3TdpUzGVg&utm_campaign=yelp_api_v3&utm_medium=api_v3_business_search&utm_source=X5Beq4YFcWJGL3TdpUzGVg,9xyjvSkidMTngtyZ6-Upaw,34.08342,-118.37011,vegan,Vegan,NA
"Genghis Cohen",648,3.5,"740 N Fairfax Ave",,"Los Angeles",CA,90046,https://www.yelp.com/biz/genghis-cohen-los-angeles-2?adjust_creative=X5Beq4YFcWJGL3TdpUzGVg&utm_campaign=yelp_api_v3&utm_medium=api_v3_business_search&utm_source=X5Beq4YFcWJGL3TdpUzGVg,yZeD7zryb6cczRLCromLFA,34.0845188,-118.3612451,musicvenues,"Music Venues",NA
"V Cafe",208,4.5,"8164 Melrose Ave",,"Los Angeles",CA,90046,https://www.yelp.com/biz/v-cafe-los-angeles?adjust_creative=X5Beq4YFcWJGL3TdpUzGVg&utm_campaign=yelp_api_v3&utm_medium=api_v3_business_search&utm_source=X5Beq4YFcWJGL3TdpUzGVg,dWI7_I3FBxwMEJof8MgCiQ,34.08346,-118.36753,cafes,Cafes,NA
"V Cut Cigar Lounge",109,4.5,"8172 Melrose Ave",,"Los Angeles",CA,90046,https://www.yelp.com/biz/v-cut-cigar-lounge-los-angeles?adjust_creative=X5Beq4YFcWJGL3TdpUzGVg&utm_campaign=yelp_api_v3&utm_medium=api_v3_business_search&utm_source=X5Beq4YFcWJGL3TdpUzGVg,yuuooFRMkNJL8EPeo8rxzw,34.0835851,-118.3677914,tobaccoshops,"Tobacco Shops",NA
"Universal City Overlook",45,4.5,"7701 Mulholland Dr",,"Los Angeles",CA,90046,https://www.yelp.com/biz/universal-city-overlook-los-angeles?adjust_creative=X5Beq4YFcWJGL3TdpUzGVg&utm_campaign=yelp_api_v3&utm_medium=api_v3_business_search&utm_source=X5Beq4YFcWJGL3TdpUzGVg,vAT4zDf33ii1UE6Kxso8Gg,34.1289394415265,-118.365231972027,parks,Parks,NA
"Hollywood Improv Restaurant",70,4.5,"8162 Melrose Ave",,Hollywood,CA,90046,https://www.yelp.com/biz/hollywood-improv-restaurant-hollywood?adjust_creative=X5Beq4YFcWJGL3TdpUzGVg&utm_campaign=yelp_api_v3&utm_medium=api_v3_business_search&utm_source=X5Beq4YFcWJGL3TdpUzGVg,7ZDX465bF0XjndSiFZ-gkw,34.083467,-118.367408,newamerican,"American (New)",NA
"No Reservation LA",3,3.5,,,"Los Angeles",CA,90046,https://www.yelp.com/biz/no-reservation-la-los-angeles-4?adjust_creative=X5Beq4YFcWJGL3TdpUzGVg&utm_campaign=yelp_api_v3&utm_medium=api_v3_business_search&utm_source=X5Beq4YFcWJGL3TdpUzGVg,r_k_pBtWBTWJFdW7pUmBfg,34.0837608,-118.3653125,foodtrucks,"Food Trucks",NA
"Mauro's Cafe",205,4.0,"8112 Melrose Ave",,"Los Angeles",CA,90046,https://www.yelp.com/biz/mauros-cafe-los-angeles-2?adjust_creative=X5Beq4YFcWJGL3TdpUzGVg&utm_campaign=yelp_api_v3&utm_medium=api_v3_business_search&utm_source=X5Beq4YFcWJGL3TdpUzGVg,6IJQg_88VaB30Bl-DbbTEQ,34.0834770202637,-118.366485595703,italian,Italian,2
"EGG TUCK",418,4.5,"7131 W Sunset Blvd","unit B","West Hollywood",CA,90046,https://www.yelp.com/biz/egg-tuck-west-hollywood?adjust_creative=X5Beq4YFcWJGL3TdpUzGVg&utm_campaign=yelp_api_v3&utm_medium=api_v3_business_search&utm_source=X5Beq4YFcWJGL3TdpUzGVg,SjLsV7OlhmNzt4h68QW20g,34.0983875,-118.34533683,breakfast_brunch,"Breakfast & Brunch",2
Wendy's,132,2.5,"7135 Sunset Blvd",,"Los Angeles",CA,90046,https://www.yelp.com/biz/wendys-los-angeles-5?adjust_creative=X5Beq4YFcWJGL3TdpUzGVg&utm_campaign=yelp_api_v3&utm_medium=api_v3_business_search&utm_source=X5Beq4YFcWJGL3TdpUzGVg,ofFN5_csgb2ZGFHdlxZ0sQ,34.09816167,-118.34522667,burgers,Burgers,2
"Chicago Stuffed Pizza",160,4.5,"7965 Melrose Ave",,"Los Angeles",CA,90046,https://www.yelp.com/biz/chicago-stuffed-pizza-los-angeles-2?adjust_creative=X5Beq4YFcWJGL3TdpUzGVg&utm_campaign=yelp_api_v3&utm_medium=api_v3_business_search&utm_source=X5Beq4YFcWJGL3TdpUzGVg,8vVy0AFOkusY8sKMT_KP9w,34.08394517,-118.363314,pizza,Pizza,2
"Carlitos Gardel Argentine Steakhouse",1123,4.5,"7963 Melrose Ave",,"Los Angeles",CA,90046,https://www.yelp.com/biz/carlitos-gardel-argentine-steakhouse-los-angeles-2?adjust_creative=X5Beq4YFcWJGL3TdpUzGVg&utm_campaign=yelp_api_v3&utm_medium=api_v3_business_search&utm_source=X5Beq4YFcWJGL3TdpUzGVg,h9PSJ18gQ4kos8A0XAGlng,34.0839249,-118.3630799,argentine,Argentine,2
"The LA Art Box",9,5.0,"8020 Melrose Ave",,"Los Angeles",CA,90046,https://www.yelp.com/biz/the-la-art-box-los-angeles?adjust_creative=X5Beq4YFcWJGL3TdpUzGVg&utm_campaign=yelp_api_v3&utm_medium=api_v3_business_search&utm_source=X5Beq4YFcWJGL3TdpUzGVg,f0z4uTMABFEeHOzYUm6a_w,34.08363,-118.36451,museums,Museums,2
"Berri's Pizza",295,3.5,"7123 Sunset Blvd",,"Los Angeles",CA,90046,https://www.yelp.com/biz/berris-pizza-los-angeles?adjust_creative=X5Beq4YFcWJGL3TdpUzGVg&utm_campaign=yelp_api_v3&utm_medium=api_v3_business_search&utm_source=X5Beq4YFcWJGL3TdpUzGVg,lHtRrThbsULBQ1MxdVkWgA,34.0980949,-118.34495,pizza,Pizza,2
"WaBa Grill",74,3.5,"7109 Sunset Blvd",,"Los Angeles",CA,90046,https://www.yelp.com/biz/waba-grill-los-angeles-18?adjust_creative=X5Beq4YFcWJGL3TdpUzGVg&utm_campaign=yelp_api_v3&utm_medium=api_v3_business_search&utm_source=X5Beq4YFcWJGL3TdpUzGVg,ZBnryA1fL6SavAjL_HsDgQ,34.09847,-118.344606,hotdogs,"Fast Food",2
"Open Source Organics",276,4.0,"7107 W Sunset Blvd",,"Los Angeles",CA,90046,https://www.yelp.com/biz/open-source-organics-los-angeles-2?adjust_creative=X5Beq4YFcWJGL3TdpUzGVg&utm_campaign=yelp_api_v3&utm_medium=api_v3_business_search&utm_source=X5Beq4YFcWJGL3TdpUzGVg,qtvZA0OrsMnHE_CcrzX7Vw,34.0981948824739,-118.344715833664,raw_food,"Live/Raw Food",2
"Shawy’s House",1,5.0,"7107 W Sunset Blvd Pl",,"West Hollywood",CA,90046,https://www.yelp.com/biz/shawy-s-house-west-hollywood?adjust_creative=X5Beq4YFcWJGL3TdpUzGVg&utm_campaign=yelp_api_v3&utm_medium=api_v3_business_search&utm_source=X5Beq4YFcWJGL3TdpUzGVg,d3DB5BeugZNBLBzatYMzUA,34.09820930449321,-118.34462563786938,tacos,Tacos,2
"Hoy's Wok Chinese Kitchen",755,4.0,"7105 W Sunset Blvd",,"Los Angeles",CA,90046,https://www.yelp.com/biz/hoys-wok-chinese-kitchen-los-angeles-2?adjust_creative=X5Beq4YFcWJGL3TdpUzGVg&utm_campaign=yelp_api_v3&utm_medium=api_v3_business_search&utm_source=X5Beq4YFcWJGL3TdpUzGVg,8fnmCiqpLdtU2XvmofwjpA,34.0980793863251,-118.344662189484,dimsum,"Dim Sum",2
"TLD at Harlowe",14,5.0,"7321 Santa Monica Blvd",,"West Hollywood",CA,90046,https://www.yelp.com/biz/tld-at-harlowe-west-hollywood?adjust_creative=X5Beq4YFcWJGL3TdpUzGVg&utm_campaign=yelp_api_v3&utm_medium=api_v3_business_search&utm_source=X5Beq4YFcWJGL3TdpUzGVg,kCy2SXTHLf37EWGngV6BPw,34.091028342532695,-118.34955585767109,french,French,2
Harlowe,470,4.0,"7321 Santa Monica Blvd",,"West Hollywood",CA,90046,https://www.yelp.com/biz/harlowe-west-hollywood-3?adjust_creative=X5Beq4YFcWJGL3TdpUzGVg&utm_campaign=yelp_api_v3&utm_medium=api_v3_business_search&utm_source=X5Beq4YFcWJGL3TdpUzGVg,kO-2RXxr3PJ4Fkh_2FfrMA,34.09103,-118.34952,cocktailbars,"Cocktail Bars",2
"Dumpling Monster",182,3.5,"7318 Santa Monica Blvd","Ste 60","West Hollywood",CA,90046,https://www.yelp.com/biz/dumpling-monster-west-hollywood-3?adjust_creative=X5Beq4YFcWJGL3TdpUzGVg&utm_campaign=yelp_api_v3&utm_medium=api_v3_business_search&utm_source=X5Beq4YFcWJGL3TdpUzGVg,shSWfUgyJI3YG73tJfND2Q,34.0907194,-118.349442,taiwanese,Taiwanese,2
"DTown Pizzeria",139,4.5,"7326 Santa Monica Blvd",,"West Hollywood",CA,90046,https://www.yelp.com/biz/dtown-pizzeria-west-hollywood-2?adjust_creative=X5Beq4YFcWJGL3TdpUzGVg&utm_campaign=yelp_api_v3&utm_medium=api_v3_business_search&utm_source=X5Beq4YFcWJGL3TdpUzGVg,IgjAoRtOtOcJwp1886l5JQ,34.090558,-118.349556,pizza,Pizza,2
"Phorage WeHo",95,3.5,"7326 Santa Monica Blvd",,"West Hollywood",CA,90046,https://www.yelp.com/biz/phorage-weho-west-hollywood?adjust_creative=X5Beq4YFcWJGL3TdpUzGVg&utm_campaign=yelp_api_v3&utm_medium=api_v3_business_search&utm_source=X5Beq4YFcWJGL3TdpUzGVg,fp3o_H2qW8OgScWO4F4udA,34.0906151,-118.3496401,vietnamese,Vietnamese,2
"Miss Melbourne Coffee",2,5.0,"7326 Santa Monica Blvd","Unit 15","West Hollywood",CA,90046,https://www.yelp.com/biz/miss-melbourne-coffee-west-hollywood-2?adjust_creative=X5Beq4YFcWJGL3TdpUzGVg&utm_campaign=yelp_api_v3&utm_medium=api_v3_business_search&utm_source=X5Beq4YFcWJGL3TdpUzGVg,oApHDgFkRPvV08UeKzKMrg,34.09063779679367,-118.3494561262657,coffee,"Coffee & Tea",2
"Ghost Pizza Kitchen",334,4.5,"7801 Melrose Ave","Ste 2","Los Angeles",CA,90046,https://www.yelp.com/biz/ghost-pizza-kitchen-los-angeles?adjust_creative=X5Beq4YFcWJGL3TdpUzGVg&utm_campaign=yelp_api_v3&utm_medium=api_v3_business_search&utm_source=X5Beq4YFcWJGL3TdpUzGVg,hSMYsvVBZ70pIYiUa3yzyA,34.08391,-118.35962,pizza,Pizza,2
"Melrose Bite",76,4.0,"7801 Melrose Ave","Ste 1A","Los Angeles",CA,90046,https://www.yelp.com/biz/melrose-bite-los-angeles-4?adjust_creative=X5Beq4YFcWJGL3TdpUzGVg&utm_campaign=yelp_api_v3&utm_medium=api_v3_business_search&utm_source=X5Beq4YFcWJGL3TdpUzGVg,FMYXrYd38xtPB9q4fXssSQ,34.08404,-118.35962,kosher,Kosher,2
"The Sequestered Chef",15,5.0,"7621 Waring Ave",,"Los Angeles",CA,90046,https://www.yelp.com/biz/the-sequestered-chef-los-angeles?adjust_creative=X5Beq4YFcWJGL3TdpUzGVg&utm_campaign=yelp_api_v3&utm_medium=api_v3_business_search&utm_source=X5Beq4YFcWJGL3TdpUzGVg,8DpDpcaQ0uDQ4o0iYBKEow,34.085513,-118.3559015,personalchefs,"Personal Chefs",2
"Erva Brew Co. Yerba Mate - Melrose Trading Post",3,5.0,"7850 Melrose Ave",,"Los Angeles",CA,90046,https://www.yelp.com/biz/erva-brew-co-yerba-mate-melrose-trading-post-los-angeles?adjust_creative=X5Beq4YFcWJGL3TdpUzGVg&utm_campaign=yelp_api_v3&utm_medium=api_v3_business_search&utm_source=X5Beq4YFcWJGL3TdpUzGVg,LS9T1tXDlMAaMfD7HClB7A,34.083335,-118.360617,coffee,"Coffee & Tea",2
"Angel Walls",5,5.0,"8025 Melrose Ave",,"Los Angeles",CA,90046,https://www.yelp.com/biz/angel-walls-los-angeles?adjust_creative=X5Beq4YFcWJGL3TdpUzGVg&utm_campaign=yelp_api_v3&utm_medium=api_v3_business_search&utm_source=X5Beq4YFcWJGL3TdpUzGVg,Zikv5gMXgEdJ0k__0isE7w,34.0838818769754,-118.35904084146,landmarks,"Landmarks & Historical Buildings",2
"Ubatuba Acai - Melrose",78,4.0,"7751 Melrose Ave",,"West Hollywood",CA,90046,https://www.yelp.com/biz/ubatuba-acai-melrose-west-hollywood?adjust_creative=X5Beq4YFcWJGL3TdpUzGVg&utm_campaign=yelp_api_v3&utm_medium=api_v3_business_search&utm_source=X5Beq4YFcWJGL3TdpUzGVg,zt7cZkrMmXXbK410pmtlzg,34.0839,-118.35864,acaibowls,"Acai Bowls",2
"Mona Lisa Kitchen",45,5.0,"7751 1/2 Melrose Ave",,"Los Angeles",CA,90046,https://www.yelp.com/biz/mona-lisa-kitchen-los-angeles-2?adjust_creative=X5Beq4YFcWJGL3TdpUzGVg&utm_campaign=yelp_api_v3&utm_medium=api_v3_business_search&utm_source=X5Beq4YFcWJGL3TdpUzGVg,4iQTqWt1rgUct4buDhY8fg,34.0839,-118.35864,pizza,Pizza,2
"Melrose Burgers 'N Fries",378,4.5,"7751 1/2 Melrose Ave",,"Los Angeles",CA,90046,https://www.yelp.com/biz/melrose-burgers-n-fries-los-angeles-3?adjust_creative=X5Beq4YFcWJGL3TdpUzGVg&utm_campaign=yelp_api_v3&utm_medium=api_v3_business_search&utm_source=X5Beq4YFcWJGL3TdpUzGVg,ZLFWmPcu6D6UBomUTpjJRg,34.083888,-118.358704,kosher,Kosher,2
"Blackwood Coffee Bar",15,4.5,"7253 Santa Monica Blvd","Ste B","West Hollywood",CA,90046,https://www.yelp.com/biz/blackwood-coffee-bar-west-hollywood?adjust_creative=X5Beq4YFcWJGL3TdpUzGVg&utm_campaign=yelp_api_v3&utm_medium=api_v3_business_search&utm_source=X5Beq4YFcWJGL3TdpUzGVg,GGBvcLWkZd2H21kAa1iKpQ,34.0908649,-118.3479873,coffee,"Coffee & Tea",2
"Le Pho",126,4.5,"7243 Santa Monica Blvd",,"West Hollywood",CA,90046,https://www.yelp.com/biz/le-pho-west-hollywood?adjust_creative=X5Beq4YFcWJGL3TdpUzGVg&utm_campaign=yelp_api_v3&utm_medium=api_v3_business_search&utm_source=X5Beq4YFcWJGL3TdpUzGVg,1e3H1JI8VowI3d1T86xAeg,34.090951,-118.347774,vietnamese,Vietnamese,2
"Kaiyo Roll",1,1.0,"707 N Stanley Ave",,"Los Angles",CA,90046,https://www.yelp.com/biz/kaiyo-roll-los-angles-2?adjust_creative=X5Beq4YFcWJGL3TdpUzGVg&utm_campaign=yelp_api_v3&utm_medium=api_v3_business_search&utm_source=X5Beq4YFcWJGL3TdpUzGVg,_Z6_DcZLiIzC5Lxh-QpQcg,34.084139,-118.356502,sushi,"Sushi Bars",NA
"Bachi Yaki",49,4.0,"7661 Melrose Ave",,"Los Angeles",CA,90046,https://www.yelp.com/biz/bachi-yaki-los-angeles-2?adjust_creative=X5Beq4YFcWJGL3TdpUzGVg&utm_campaign=yelp_api_v3&utm_medium=api_v3_business_search&utm_source=X5Beq4YFcWJGL3TdpUzGVg,VIPpAJRIiXHzXY3ydz1qww,34.083996270395765,-118.3568115,japanese,Japanese,NA
"Poinsettia Recreation Center",33,3.5,"7341 Willoughby Ave",,"Los Angeles",CA,90046,https://www.yelp.com/biz/poinsettia-recreation-center-los-angeles?adjust_creative=X5Beq4YFcWJGL3TdpUzGVg&utm_campaign=yelp_api_v3&utm_medium=api_v3_business_search&utm_source=X5Beq4YFcWJGL3TdpUzGVg,YhzXAXw75lR5eOpdljH_Nw,34.0872549,-118.3497757,parks,Parks,NA
Jones,1126,4.0,"7205 Santa Monica Blvd",,"West Hollywood",CA,90046,https://www.yelp.com/biz/jones-west-hollywood-2?adjust_creative=X5Beq4YFcWJGL3TdpUzGVg&utm_campaign=yelp_api_v3&utm_medium=api_v3_business_search&utm_source=X5Beq4YFcWJGL3TdpUzGVg,bXfIgNNhPrfuvtQhCy7KMQ,34.0908449,-118.34645,italian,Italian,NA
Starbucks,183,3.0,"7624 Melrose Ave",,"Los Angeles",CA,90046,https://www.yelp.com/biz/starbucks-los-angeles-149?adjust_creative=X5Beq4YFcWJGL3TdpUzGVg&utm_campaign=yelp_api_v3&utm_medium=api_v3_business_search&utm_source=X5Beq4YFcWJGL3TdpUzGVg,x9jbQAETId6xyxMjq-uyGg,34.083514,-118.356131,coffee,"Coffee & Tea",NA
"Breakfast Republic",148,4.0,"7141 Santa Monica Blvd","Ste 500","West Hollywood",CA,90046,https://www.yelp.com/biz/breakfast-republic-west-hollywood-2?adjust_creative=X5Beq4YFcWJGL3TdpUzGVg&utm_campaign=yelp_api_v3&utm_medium=api_v3_business_search&utm_source=X5Beq4YFcWJGL3TdpUzGVg,I0Z8r5SGmklK3mqzbcHrUw,34.090949,-118.345765,breakfast_brunch,"Breakfast & Brunch",NA
"Apple Restaurant & Lounge",51,2.5,"665 N Robertson Blvd",,"West Hollywood",CA,90046,https://www.yelp.com/biz/apple-restaurant-and-lounge-west-hollywood?adjust_creative=X5Beq4YFcWJGL3TdpUzGVg&utm_campaign=yelp_api_v3&utm_medium=api_v3_business_search&utm_source=X5Beq4YFcWJGL3TdpUzGVg,X6DV-FKktwavTElz2vDaUQ,34.0825441,-118.3856449,restaurants,Restaurants,NA
"Formosa Cafe",432,4.0,"7156 Santa Monica Blvd",,"West Hollywood",CA,90046,https://www.yelp.com/biz/formosa-cafe-west-hollywood-2?adjust_creative=X5Beq4YFcWJGL3TdpUzGVg&utm_campaign=yelp_api_v3&utm_medium=api_v3_business_search&utm_source=X5Beq4YFcWJGL3TdpUzGVg,JD6tyqraOsi5xF10J0KEwQ,34.09030433,-118.34603833,asianfusion,"Asian Fusion",NA
"Mendocino Farms",821,4.0,"7100 Santa Monica Blvd",,"West Hollywood",CA,90046,https://www.yelp.com/biz/mendocino-farms-west-hollywood?adjust_creative=X5Beq4YFcWJGL3TdpUzGVg&utm_campaign=yelp_api_v3&utm_medium=api_v3_business_search&utm_source=X5Beq4YFcWJGL3TdpUzGVg,zdb_15IAH6Ia_V6buaJxCg,34.0904074848345,-118.345812579341,sandwiches,Sandwiches,NA
"Snake Pit Alehouse Whiskey Bar & Kitchen",235,3.5,"7529 Melrose Ave",,"Los Angeles",CA,90046,https://www.yelp.com/biz/snake-pit-alehouse-whiskey-bar-and-kitchen-los-angeles?adjust_creative=X5Beq4YFcWJGL3TdpUzGVg&utm_campaign=yelp_api_v3&utm_medium=api_v3_business_search&utm_source=X5Beq4YFcWJGL3TdpUzGVg,pwSyM5u7E06c_Nix-zDRMQ,34.0837923,-118.3539191,tradamerican,"American (Traditional)",NA
"West Hollywood Brunch Club",9,2.0,"7100 Santa Monica Blvd",,"West Hollywood",CA,90046,https://www.yelp.com/biz/west-hollywood-brunch-club-west-hollywood?adjust_creative=X5Beq4YFcWJGL3TdpUzGVg&utm_campaign=yelp_api_v3&utm_medium=api_v3_business_search&utm_source=X5Beq4YFcWJGL3TdpUzGVg,klRQSAPLzme1BFX9uz7GzA,34.089909,-118.344643,breakfast_brunch,"Breakfast & Brunch",NA
"Pisces Poke & Ramen",7,5.0,"7100 Santa Monica Blvd","Ste 135","West Hollywood",CA,90046,https://www.yelp.com/biz/pisces-poke-and-ramen-west-hollywood?adjust_creative=X5Beq4YFcWJGL3TdpUzGVg&utm_campaign=yelp_api_v3&utm_medium=api_v3_business_search&utm_source=X5Beq4YFcWJGL3TdpUzGVg,CIpULySm-fnyv-EKORzQug,34.09055,-118.34416,ramen,Ramen,NA
"Peach Pit Pop Up",32,1.5,"7507 Melrose Ave",,"Los Angeles",CA,90046,https://www.yelp.com/biz/peach-pit-pop-up-los-angeles?adjust_creative=X5Beq4YFcWJGL3TdpUzGVg&utm_campaign=yelp_api_v3&utm_medium=api_v3_business_search&utm_source=X5Beq4YFcWJGL3TdpUzGVg,aPyyafPWdqrxghOOMDLutw,34.0838520881601,-118.353573178864,popuprestaurants,"Pop-Up Restaurants",NA
Spartina,540,4.0,"7505 Melrose Ave",,"Los Angeles",CA,90046,https://www.yelp.com/biz/spartina-los-angeles?adjust_creative=X5Beq4YFcWJGL3TdpUzGVg&utm_campaign=yelp_api_v3&utm_medium=api_v3_business_search&utm_source=X5Beq4YFcWJGL3TdpUzGVg,zLEV5J2HmKHocbPZONGJAA,34.0838749349319,-118.353523872793,italian,Italian,NA
"nomoo | new american burgers",273,4.5,"7507 Melrose Ave",,"Los Angeles",CA,90046,https://www.yelp.com/biz/nomoo-new-american-burgers-los-angeles-2?adjust_creative=X5Beq4YFcWJGL3TdpUzGVg&utm_campaign=yelp_api_v3&utm_medium=api_v3_business_search&utm_source=X5Beq4YFcWJGL3TdpUzGVg,_AY8sy3vRAPbdKbqhAMRVw,34.0837966,-118.353576,burgers,Burgers,NA
"Crazy Rock'N Sushi",1264,4.0,"7100 Santa Monica Blvd","Ste 158","West Hollywood",CA,90046,https://www.yelp.com/biz/crazy-rockn-sushi-west-hollywood?adjust_creative=X5Beq4YFcWJGL3TdpUzGVg&utm_campaign=yelp_api_v3&utm_medium=api_v3_business_search&utm_source=X5Beq4YFcWJGL3TdpUzGVg,1bGqnnpiSxp93IJEWjwIqQ,34.0904766283723,-118.344948898811,japanese,Japanese,NA
"Rocketship Coffee",35,4.5,"7475 Melrose Ave",,"Los Angeles",CA,90046,https://www.yelp.com/biz/rocketship-coffee-los-angeles?adjust_creative=X5Beq4YFcWJGL3TdpUzGVg&utm_campaign=yelp_api_v3&utm_medium=api_v3_business_search&utm_source=X5Beq4YFcWJGL3TdpUzGVg,zU8Sp6X0d6w6UvN3Wv06pQ,34.0839,-118.35305,coffee,"Coffee & Tea",NA
"Jersey Mike's Subs",213,3.5,"7100 Santa Monica Blvd","Unit 153","West Hollywood",CA,90046,https://www.yelp.com/biz/jersey-mikes-subs-west-hollywood-2?adjust_creative=X5Beq4YFcWJGL3TdpUzGVg&utm_campaign=yelp_api_v3&utm_medium=api_v3_business_search&utm_source=X5Beq4YFcWJGL3TdpUzGVg,9Phrfbp0KMo2yMESvlwyCA,34.090552,-118.344804,sandwiches,Sandwiches,2
"Tree of Wishes",50,4.5,"7469 Melrose Ave",,"Los Angeles",CA,90046,https://www.yelp.com/biz/tree-of-wishes-los-angeles?adjust_creative=X5Beq4YFcWJGL3TdpUzGVg&utm_campaign=yelp_api_v3&utm_medium=api_v3_business_search&utm_source=X5Beq4YFcWJGL3TdpUzGVg,OCO1IXkppXtDW-4DZoIdpQ,34.083839,-118.352776,mediterranean,Mediterranean,2
"Kyoto Hibachi",41,3.5,"7500 Melrose Ave",,"Los Angeles",CA,90046,https://www.yelp.com/biz/kyoto-hibachi-los-angeles-3?adjust_creative=X5Beq4YFcWJGL3TdpUzGVg&utm_campaign=yelp_api_v3&utm_medium=api_v3_business_search&utm_source=X5Beq4YFcWJGL3TdpUzGVg,X1ExAwfVkwbf62QE12mjGA,34.0833754,-118.3536158,foodtrucks,"Food Trucks",2
"Day & Night Cereal Bar",8,5.0,"7500 W Melrose Ave",,"Los Angeles",CA,90046,https://www.yelp.com/biz/day-and-night-cereal-bar-los-angeles?adjust_creative=X5Beq4YFcWJGL3TdpUzGVg&utm_campaign=yelp_api_v3&utm_medium=api_v3_business_search&utm_source=X5Beq4YFcWJGL3TdpUzGVg,GkPga7TynXB0-4Bu6FDIgw,34.0833754,-118.3536158,breakfast_brunch,"Breakfast & Brunch",2
"Melrose Umbrella Co.",533,4.0,"7465 Melrose Ave",,"Los Angeles",CA,90046,https://www.yelp.com/biz/melrose-umbrella-co-los-angeles-5?adjust_creative=X5Beq4YFcWJGL3TdpUzGVg&utm_campaign=yelp_api_v3&utm_medium=api_v3_business_search&utm_source=X5Beq4YFcWJGL3TdpUzGVg,7eOMv-sQMWRzYCeeQVatJw,34.083851,-118.352725,cocktailbars,"Cocktail Bars",2
"Umbrella Taco",48,4.5,"7461 Melrose Ave",,"West Hollywood",CA,90046,https://www.yelp.com/biz/umbrella-taco-west-hollywood-2?adjust_creative=X5Beq4YFcWJGL3TdpUzGVg&utm_campaign=yelp_api_v3&utm_medium=api_v3_business_search&utm_source=X5Beq4YFcWJGL3TdpUzGVg,v5-Y2MYiHYaM4khqjkW5Ng,34.083862,-118.3526985,tacos,Tacos,2
"Taste Of The Nation Los Angeles",8,5.0,"1041 N Formosa Ave",,"West Hollywood",CA,90046,https://www.yelp.com/biz/taste-of-the-nation-los-angeles-west-hollywood?adjust_creative=X5Beq4YFcWJGL3TdpUzGVg&utm_campaign=yelp_api_v3&utm_medium=api_v3_business_search&utm_source=X5Beq4YFcWJGL3TdpUzGVg,LH7vTvcXE1Hwduwm45fU4Q,34.0901808526899,-118.344935774803,localflavor,"Local Flavor",2
"Hot N Juicy Crawfish",1202,3.5,"7100 Santa Monica Blvd",,"West Hollywood",CA,90046,https://www.yelp.com/biz/hot-n-juicy-crawfish-west-hollywood?adjust_creative=X5Beq4YFcWJGL3TdpUzGVg&utm_campaign=yelp_api_v3&utm_medium=api_v3_business_search&utm_source=X5Beq4YFcWJGL3TdpUzGVg,y6v4biMI5a6cYmypdO3vNQ,34.09051,-118.344573,cajun,Cajun/Creole,2
"Blackbird Pizza Shop",434,4.5,"7459 Melrose Ave",,"Los Angeles",CA,90046,https://www.yelp.com/biz/blackbird-pizza-shop-los-angeles?adjust_creative=X5Beq4YFcWJGL3TdpUzGVg&utm_campaign=yelp_api_v3&utm_medium=api_v3_business_search&utm_source=X5Beq4YFcWJGL3TdpUzGVg,v5JaR9R_p0dnyDtefjtF9A,34.08387,-118.35253,pizza,Pizza,2
"E.A.K. RAMEN & SUSHI ROLL",424,4.0,"7455 Melrose Ave",,"Los Angeles",CA,90046,https://www.yelp.com/biz/e-a-k-ramen-and-sushi-roll-los-angeles-3?adjust_creative=X5Beq4YFcWJGL3TdpUzGVg&utm_campaign=yelp_api_v3&utm_medium=api_v3_business_search&utm_source=X5Beq4YFcWJGL3TdpUzGVg,oqLsYZSS_CFXfmh0yZDNdQ,34.0837585,-118.352546,ramen,Ramen,2
"Antonio's Restaurant",310,3.5,"7470 Melrose Ave",,"Los Angeles",CA,90046,https://www.yelp.com/biz/antonios-restaurant-los-angeles?adjust_creative=X5Beq4YFcWJGL3TdpUzGVg&utm_campaign=yelp_api_v3&utm_medium=api_v3_business_search&utm_source=X5Beq4YFcWJGL3TdpUzGVg,UFiRc5ILf5HCuJmuDvrnWg,34.0833625793457,-118.352798461914,mexican,Mexican,2
Starbucks,6,2.0,"7100 Santa Monca Blvd",,"West Hollywood",CA,90046,https://www.yelp.com/biz/starbucks-west-hollywood-21?adjust_creative=X5Beq4YFcWJGL3TdpUzGVg&utm_campaign=yelp_api_v3&utm_medium=api_v3_business_search&utm_source=X5Beq4YFcWJGL3TdpUzGVg,3-b36GwquyvcqXEUROtZ0w,34.090414,-118.344307,coffee,"Coffee & Tea",2
Starbucks,107,3.0,"7100 Santa Monica Blvd","Ste 140","West Hollywood",CA,90046,https://www.yelp.com/biz/starbucks-west-hollywood-7?adjust_creative=X5Beq4YFcWJGL3TdpUzGVg&utm_campaign=yelp_api_v3&utm_medium=api_v3_business_search&utm_source=X5Beq4YFcWJGL3TdpUzGVg,82Nl4_CMqimXpL9mymFytw,34.090401,-118.344306,coffee,"Coffee & Tea",2
Issima,86,4.0,"623 N La Peer Dr",,"West Hollywood",CA,90046,https://www.yelp.com/biz/issima-west-hollywood-2?adjust_creative=X5Beq4YFcWJGL3TdpUzGVg&utm_campaign=yelp_api_v3&utm_medium=api_v3_business_search&utm_source=X5Beq4YFcWJGL3TdpUzGVg,NbJjcoEoLJPOqmeDYbAKFQ,34.0813553,-118.3868375,mediterranean,Mediterranean,2
"Provami Pizzeria",164,4.5,"7407 W Melrose Ave",,"Los Angeles",CA,90046,https://www.yelp.com/biz/provami-pizzeria-los-angeles?adjust_creative=X5Beq4YFcWJGL3TdpUzGVg&utm_campaign=yelp_api_v3&utm_medium=api_v3_business_search&utm_source=X5Beq4YFcWJGL3TdpUzGVg,ubVKKfEfKfS_Hy7ljKg5jA,34.08374123416727,-118.35145065864937,pizza,Pizza,2
"Ta-eem Grill",1174,4.5,"7422 Melrose Ave",,"Los Angeles",CA,90046,https://www.yelp.com/biz/ta-eem-grill-los-angeles?adjust_creative=X5Beq4YFcWJGL3TdpUzGVg&utm_campaign=yelp_api_v3&utm_medium=api_v3_business_search&utm_source=X5Beq4YFcWJGL3TdpUzGVg,1k6hSTQO9E4iSzwyx8yTUw,34.0834879,-118.3518564,mediterranean,Mediterranean,NA
"Reynoso's Hot Dogs",2,4.5,"936 N Formosa Ave",,"Los Angeles",CA,90046,https://www.yelp.com/biz/reynosos-hot-dogs-los-angeles?adjust_creative=X5Beq4YFcWJGL3TdpUzGVg&utm_campaign=yelp_api_v3&utm_medium=api_v3_business_search&utm_source=X5Beq4YFcWJGL3TdpUzGVg,52gSn6EYRV1yQBInJnSV8w,34.0882301,-118.3456573,streetvendors,"Street Vendors",NA
"The Village Idiot",1276,3.5,"7383 Melrose Ave",,"Los Angeles",CA,90046,https://www.yelp.com/biz/the-village-idiot-los-angeles?adjust_creative=X5Beq4YFcWJGL3TdpUzGVg&utm_campaign=yelp_api_v3&utm_medium=api_v3_business_search&utm_source=X5Beq4YFcWJGL3TdpUzGVg,bL8ypAeHQR1VOZLFgmSR7g,34.08384,-118.35093,bars,Bars,NA
"Melrose Station",117,4.0,"7384 Melrose Ave",,"Los Angeles",CA,90046,https://www.yelp.com/biz/melrose-station-los-angeles?adjust_creative=X5Beq4YFcWJGL3TdpUzGVg&utm_campaign=yelp_api_v3&utm_medium=api_v3_business_search&utm_source=X5Beq4YFcWJGL3TdpUzGVg,UZYUb8E_FKloJW1akvTpqg,34.083469,-118.3510004,speakeasies,Speakeasies,NA
"Glass Hookah Lounge",373,4.0,"7384 Melrose Ave",,"Los Angeles",CA,90046,https://www.yelp.com/biz/glass-hookah-lounge-los-angeles?adjust_creative=X5Beq4YFcWJGL3TdpUzGVg&utm_campaign=yelp_api_v3&utm_medium=api_v3_business_search&utm_source=X5Beq4YFcWJGL3TdpUzGVg,6pkjbG-TCWKEMReFXiBnnw,34.083469,-118.3510004,lounges,Lounges,NA
"Blu Jam Café",5630,4.0,"7371 Melrose Ave",,"Los Angeles",CA,90046,https://www.yelp.com/biz/blu-jam-caf%C3%A9-los-angeles-2?adjust_creative=X5Beq4YFcWJGL3TdpUzGVg&utm_campaign=yelp_api_v3&utm_medium=api_v3_business_search&utm_source=X5Beq4YFcWJGL3TdpUzGVg,ki5SNb4Lli6uOklz6BXXGw,34.0837144354804,-118.350571407739,newamerican,"American (New)",NA
"Coffee Attic",166,4.0,"7353 Melrose Ave",,"Los Angeles",CA,90046,https://www.yelp.com/biz/coffee-attic-los-angeles?adjust_creative=X5Beq4YFcWJGL3TdpUzGVg&utm_campaign=yelp_api_v3&utm_medium=api_v3_business_search&utm_source=X5Beq4YFcWJGL3TdpUzGVg,u3PnvP1yh_l7fMaZIxOCMg,34.083871,-118.3501442,coffee,"Coffee & Tea",NA
7-Eleven,12,2.0,"7353 Melrose Ave",,"Los Angeles",CA,90046,https://www.yelp.com/biz/7-eleven-los-angeles-187?adjust_creative=X5Beq4YFcWJGL3TdpUzGVg&utm_campaign=yelp_api_v3&utm_medium=api_v3_business_search&utm_source=X5Beq4YFcWJGL3TdpUzGVg,-KOvq9vXKGcG3BoEFR3Ngw,34.0837055,-118.3500652,convenience,"Convenience Stores",NA
"Kibitz Room",112,4.0,"419 N Fairfax Ave",,"West Hollywood",CA,90046,https://www.yelp.com/biz/kibitz-room-west-hollywood?adjust_creative=X5Beq4YFcWJGL3TdpUzGVg&utm_campaign=yelp_api_v3&utm_medium=api_v3_business_search&utm_source=X5Beq4YFcWJGL3TdpUzGVg,s-2RZEj5ZHO2ssFZMtI0fg,34.0887794494629,-118.361549377441,musicvenues,"Music Venues",NA
"La Creme Cafe",206,4.0,"7376 Melrose Ave",,"Los Angeles",CA,90046,https://www.yelp.com/biz/la-creme-cafe-los-angeles?adjust_creative=X5Beq4YFcWJGL3TdpUzGVg&utm_campaign=yelp_api_v3&utm_medium=api_v3_business_search&utm_source=X5Beq4YFcWJGL3TdpUzGVg,AHEvVyKMXY0Qdt6xF2yIGg,34.083389,-118.350777,modern_european,"Modern European",NA
Subway,15,3.5,"7353 Melrose Ave","Ste D","Los Angeles",CA,90046,https://www.yelp.com/biz/subway-los-angeles-375?adjust_creative=X5Beq4YFcWJGL3TdpUzGVg&utm_campaign=yelp_api_v3&utm_medium=api_v3_business_search&utm_source=X5Beq4YFcWJGL3TdpUzGVg,PiNDdm8DoVY2CM-IxPPVGw,34.0837525,-118.350165576343,sandwiches,Sandwiches,NA
"Heirloom Pizzeria",76,5.0,"7368 Melrose Ave",,"Los Angeles",CA,90046,https://www.yelp.com/biz/heirloom-pizzeria-los-angeles?adjust_creative=X5Beq4YFcWJGL3TdpUzGVg&utm_campaign=yelp_api_v3&utm_medium=api_v3_business_search&utm_source=X5Beq4YFcWJGL3TdpUzGVg,kNmSXaobmYaF83DAh41IZg,34.08344,-118.35048,pizza,Pizza,NA
Sal's,458,4.0,"7356 Melrose Ave",,"Los Angeles",CA,90046,https://www.yelp.com/biz/sals-los-angeles?adjust_creative=X5Beq4YFcWJGL3TdpUzGVg&utm_campaign=yelp_api_v3&utm_medium=api_v3_business_search&utm_source=X5Beq4YFcWJGL3TdpUzGVg,qyoXF1QSRHskSOzqyISDxA,34.083463,-118.350136,pizza,Pizza,NA
"Sal's Comedy Hole",32,4.5,"7356 Melrose Ave",,"Los Angeles",CA,90046,https://www.yelp.com/biz/sals-comedy-hole-los-angeles?adjust_creative=X5Beq4YFcWJGL3TdpUzGVg&utm_campaign=yelp_api_v3&utm_medium=api_v3_business_search&utm_source=X5Beq4YFcWJGL3TdpUzGVg,N5-fjLHu3L0ycCrV8nsA6A,34.083301,-118.350135,comedyclubs,"Comedy Clubs",NA
"Love Baked Wings",488,4.0,"7350 Melrose Ave",,"Los Angeles",CA,90046,https://www.yelp.com/biz/love-baked-wings-los-angeles?adjust_creative=X5Beq4YFcWJGL3TdpUzGVg&utm_campaign=yelp_api_v3&utm_medium=api_v3_business_search&utm_source=X5Beq4YFcWJGL3TdpUzGVg,2toCl4bQ-91-1aTkYynAcQ,34.083405,-118.350021,chicken_wings,"Chicken Wings",NA
"La Chouquette",202,4.5,"7350 Melrose Ave",,"Los Angeles",CA,90046,https://www.yelp.com/biz/la-chouquette-los-angeles?adjust_creative=X5Beq4YFcWJGL3TdpUzGVg&utm_campaign=yelp_api_v3&utm_medium=api_v3_business_search&utm_source=X5Beq4YFcWJGL3TdpUzGVg,u3Ovxpd957VFHWjYggtSoA,34.0833,-118.34999,bakeries,Bakeries,NA
Ronan,239,4.0,"7315 Melrose Ave",,"Los Angeles",CA,90046,https://www.yelp.com/biz/ronan-los-angeles?adjust_creative=X5Beq4YFcWJGL3TdpUzGVg&utm_campaign=yelp_api_v3&utm_medium=api_v3_business_search&utm_source=X5Beq4YFcWJGL3TdpUzGVg,1t89y1JeBGBC4aEbBNZjRg,34.0838245114268,-118.349283778822,pizza,Pizza,NA
"Enigma Coffee",13,4.5,"7311 Melrose Ave",,"Los Angeles",CA,90046,https://www.yelp.com/biz/enigma-coffee-los-angeles-4?adjust_creative=X5Beq4YFcWJGL3TdpUzGVg&utm_campaign=yelp_api_v3&utm_medium=api_v3_business_search&utm_source=X5Beq4YFcWJGL3TdpUzGVg,5qdTuE-Jo4YmPS65SGQfKw,34.08367604295927,-118.3492259,coffee,"Coffee & Tea",NA
"Happy Ice",296,4.5,"7324 Melrose Ave",,"Los Angeles",CA,90046,https://www.yelp.com/biz/happy-ice-los-angeles?adjust_creative=X5Beq4YFcWJGL3TdpUzGVg&utm_campaign=yelp_api_v3&utm_medium=api_v3_business_search&utm_source=X5Beq4YFcWJGL3TdpUzGVg,Zv6pQP12TsaqfQfLBHhOiQ,34.083387,-118.349637,foodtrucks,"Food Trucks",NA
"Summer Buffalo",479,4.5,"7275 Melrose Ave","Ste A","Los Angeles",CA,90046,https://www.yelp.com/biz/summer-buffalo-los-angeles?adjust_creative=X5Beq4YFcWJGL3TdpUzGVg&utm_campaign=yelp_api_v3&utm_medium=api_v3_business_search&utm_source=X5Beq4YFcWJGL3TdpUzGVg,V-eVoKK5lhj8Fk_cw3AGRA,34.0837269,-118.3484092,thai,Thai,NA
"Jamra Grill",58,5.0,"7275 Melrose Ave","Ste B","Los Angeles",CA,90046,https://www.yelp.com/biz/jamra-grill-los-angeles?adjust_creative=X5Beq4YFcWJGL3TdpUzGVg&utm_campaign=yelp_api_v3&utm_medium=api_v3_business_search&utm_source=X5Beq4YFcWJGL3TdpUzGVg,TOng5hzWI0IC5QbuJOOKhg,34.08367358499468,-118.34841322331339,mediterranean,Mediterranean,2
"Roots Indian Bistro",106,5.0,"7265 Melrose Ave",,"Los Angeles",CA,90046,https://www.yelp.com/biz/roots-indian-bistro-los-angeles?adjust_creative=X5Beq4YFcWJGL3TdpUzGVg&utm_campaign=yelp_api_v3&utm_medium=api_v3_business_search&utm_source=X5Beq4YFcWJGL3TdpUzGVg,gtBp48afpJePQgIy15GsrQ,34.0838025,-118.3480326,indpak,Indian,2
"Bandit Brews",30,5.0,"7274 Melrose Ave",,"Los Angeles",CA,90046,https://www.yelp.com/biz/bandit-brews-los-angeles?adjust_creative=X5Beq4YFcWJGL3TdpUzGVg&utm_campaign=yelp_api_v3&utm_medium=api_v3_business_search&utm_source=X5Beq4YFcWJGL3TdpUzGVg,m1f8Q57DWlE4Bfij6KEBXg,34.08339,-118.34828,newamerican,"American (New)",2
"Sugar Taco",887,4.5,"7257 Melrose Ave",,"Los Angeles",CA,90046,https://www.yelp.com/biz/sugar-taco-los-angeles-2?adjust_creative=X5Beq4YFcWJGL3TdpUzGVg&utm_campaign=yelp_api_v3&utm_medium=api_v3_business_search&utm_source=X5Beq4YFcWJGL3TdpUzGVg,DoyIC0ElqglrlHBKDxXOwg,34.08370683,-118.34784433,vegan,Vegan,2
"Le Ciel Pink",74,4.5,"7266 Melrose Ave","Ste 1","West Hollywood",CA,90046,https://www.yelp.com/biz/le-ciel-pink-west-hollywood?adjust_creative=X5Beq4YFcWJGL3TdpUzGVg&utm_campaign=yelp_api_v3&utm_medium=api_v3_business_search&utm_source=X5Beq4YFcWJGL3TdpUzGVg,5zl2ADaV_DrfjhMkSuqaxw,34.083296,-118.348044,coffee,"Coffee & Tea",2
"Holy Roly Ice Cream",318,4.0,"7266 Melrose Ave",,"Los Angeles",CA,90046,https://www.yelp.com/biz/holy-roly-ice-cream-los-angeles-8?adjust_creative=X5Beq4YFcWJGL3TdpUzGVg&utm_campaign=yelp_api_v3&utm_medium=api_v3_business_search&utm_source=X5Beq4YFcWJGL3TdpUzGVg,YAAijfBW7PKkz9sW_fTx5w,34.08325,-118.34804,icecream,"Ice Cream & Frozen Yogurt",2
"Bento Box",2,4.0,"7229 Melrose Ave",,"Los Angeles",CA,90046,https://www.yelp.com/biz/bento-box-los-angeles?adjust_creative=X5Beq4YFcWJGL3TdpUzGVg&utm_campaign=yelp_api_v3&utm_medium=api_v3_business_search&utm_source=X5Beq4YFcWJGL3TdpUzGVg,UggHV5dgJJdcsRf1Xeo1sA,34.08363,-118.34724,sushi,"Sushi Bars",2
"Lala's Argentine Grill",2137,4.0,"7229 Melrose Ave",,"Los Angeles",CA,90046,https://www.yelp.com/biz/lalas-argentine-grill-los-angeles-3?adjust_creative=X5Beq4YFcWJGL3TdpUzGVg&utm_campaign=yelp_api_v3&utm_medium=api_v3_business_search&utm_source=X5Beq4YFcWJGL3TdpUzGVg,h_VkRMpSrtjdKDxUJ7sDOQ,34.08376,-118.34725,argentine,Argentine,2
Mochinut-Melrose,54,4.0,"7217 Melrose Ave",,"Los Angeles",CA,90046,https://www.yelp.com/biz/mochinut-melrose-los-angeles-2?adjust_creative=X5Beq4YFcWJGL3TdpUzGVg&utm_campaign=yelp_api_v3&utm_medium=api_v3_business_search&utm_source=X5Beq4YFcWJGL3TdpUzGVg,wW_HCm3CpuuEMwCREwh_bA,34.08380910919706,-118.3468613,donuts,Donuts,1
Frankie's,456,4.0,"7228 Melrose Ave",,"Los Angeles",CA,90046,https://www.yelp.com/biz/frankies-los-angeles-2?adjust_creative=X5Beq4YFcWJGL3TdpUzGVg&utm_campaign=yelp_api_v3&utm_medium=api_v3_business_search&utm_source=X5Beq4YFcWJGL3TdpUzGVg,bSfdLm1ke0oFCUK7hiAQ_g,34.08323,-118.34724,italian,Italian,1
"Galaxy Gallery",1,5.0,"7224 Melrose Ave",,"Los Angeles",CA,90046,https://www.yelp.com/biz/galaxy-gallery-los-angeles-2?adjust_creative=X5Beq4YFcWJGL3TdpUzGVg&utm_campaign=yelp_api_v3&utm_medium=api_v3_business_search&utm_source=X5Beq4YFcWJGL3TdpUzGVg,HoqLBP_KyKnFVR4RHH1gcA,34.08324,-118.34718,coffee,"Coffee & Tea",1
"Cafe Joanne",104,4.5,"7201 Melrose Ave","Ste C","Los Angeles",CA,90046,https://www.yelp.com/biz/cafe-joanne-los-angeles-2?adjust_creative=X5Beq4YFcWJGL3TdpUzGVg&utm_campaign=yelp_api_v3&utm_medium=api_v3_business_search&utm_source=X5Beq4YFcWJGL3TdpUzGVg,n-blFV1qLtLlQVJkhKX6MA,34.083705137678,-118.34634043188701,coffee,"Coffee & Tea",1
"LN2 Restaurant",151,4.5,"7212 Melrose Ave",,"Los Angeles",CA,90046,https://www.yelp.com/biz/ln2-restaurant-los-angeles-2?adjust_creative=X5Beq4YFcWJGL3TdpUzGVg&utm_campaign=yelp_api_v3&utm_medium=api_v3_business_search&utm_source=X5Beq4YFcWJGL3TdpUzGVg,TJNKJoR2VLUn5esoTkOkbg,34.08322,-118.34669,cocktailbars,"Cocktail Bars",1
"Fratelli Cafe",1854,4.5,"7200 Melrose Ave",,"Los Angeles",CA,90046,https://www.yelp.com/biz/fratelli-cafe-los-angeles?adjust_creative=X5Beq4YFcWJGL3TdpUzGVg&utm_campaign=yelp_api_v3&utm_medium=api_v3_business_search&utm_source=X5Beq4YFcWJGL3TdpUzGVg,fCfkMf27m2PcTWXLTrLM7Q,34.083342964773145,-118.34637941390439,coffee,"Coffee & Tea",1
